stop_id,stop_code,stop_name,stop_desc,stop_lat,stop_lon,zone_id,stop_url,location_type,parent_station,stop_timezone,wheelchair_boarding
3,PKSP(NE),Park/Speedway,N PARK AVE & E SPEEDWAY BLVD,32.236753,-110.956685,,,,,,0
4,GLCA(SE),Glenn/Campbell,E GLENN ST & N CAMPBELL AV,32.2575,-110.94317,,,,,,0
5,GLAV(SE),Glenn/Alvernon,E GLENN ST & N ALVERNON WAY,32.257785,-110.909233,,,,,,0
8,GLAV(NW),Glenn/Alvernon,E GLENN ST & N HASKELL DR,32.257945,-110.910127,,,,,,0
9,GLCA(NE),Glenn/Campbell,E GLENN ST & N CAMPBELL AV,32.257615,-110.943542,,,,,,0
16,CH22(SW),Cherrybell/22nd St,S CHERRYBELL STRAV & E 22ND ST,32.205836,-110.947935,,,,,,0
18,BUMC(IN),BUMC/South Campus,0 BANNER-UMC SOUTH CAMPUS,32.176908,-110.93048,,,,,,0
20,ESPA(SE),Escalante/Pantano,E ESCALANTE RD & S PANTANO RD,32.17723,-110.823121,,,,,,0
21,STKO(NW),Stella/Kolb,E STELLA RD & S KOLB RD,32.184746,-110.841452,,,,,,0
22,WIBR(SW),Wilmot/Broadway,S WILMOT RD & E BROADWAY BLVD,32.220401,-110.8581,,,,,,0
23,5SAV(NW),5th St/Alvernon,E 5TH ST & N ALVERNON WAY,32.228973,-110.91003,,,,,,0
25,RTC(004),Downtown Ronstadt Center,W RONSTADT TRANSIT CENTER DR,32.222583,-110.968115,,,,,,0
28,RTC(007),Downtown Ronstadt Center,W RONSTADT TRANSIT CENTER DR,32.222483,-110.968236,,,,,,0
29,6SCA(SE),6th St/Campbell,E 6TH ST & N CAMPBELL AVE,32.227727,-110.942714,,,,,,0
30,5SAV(SE),5th St/Alvernon,E 5TH ST & N ALVERNON WAY,32.228805,-110.909321,,,,,,0
32,STKO(SE),Stella/Kolb,E STELLA RD & S KOLB RD,32.184599,-110.840199,,,,,,0
34,PCCE(ES),Pima College East Campus,S FRED ENKE DR & E PCC EAST PL,32.16527,-110.815641,,,,,,0
35,HAGL(NE),Harrison/Golf Links,S HARRISON RD & E GOLF LINKS RD,32.192592,-110.789623,,,,,,0
40,SPAL(NW),Speedway/Alvernon,E SPEEDWAY BLVD & N ALVERNON WAY,32.236315,-110.910143,,,,,,0
41,SPCA(NW),Speedway/Campbell,E SPEEDWAY BLVD & N WARREN AVE,32.236178,-110.944438,,,,,,0
42,6APE(SE),6th Av/Pennington,N 6TH AVE & W RONSTADT TRANSIT CENTER DR,32.223375,-110.968582,,,,,,0
45,SPCA(SE),Speedway/Campbell,E SPEEDWAY BLVD & N CAMPBELL AVE,32.23597,-110.94348,,,,,,0
46,SPAL(SE),Speedway/Alvernon,E SPEEDWAY BLVD & N ALVERNON WAY,32.236108,-110.909158,,,,,,0
47,SPWI(SE),Speedway/Wilmot,E SPEEDWAY BLVD & N WILMOT RD,32.235564,-110.857491,,,,,,0
48,KOGL(NE),Kolb/Golf Links,S KOLB RD & E GOLF LINKS RD,32.192317,-110.840857,,,,,,0
51,HAGL(NW),Harrison/Golf Links,S HARRISON RD & E GOLF LINKS RD,32.192908,-110.789843,,,,,,0
53,PIAL(NW),Pima/Alvernon,E PIMA ST & N ROSEMARY DR,32.243463,-110.909953,,,,,,0
54,PIAL(SE),Pima/Alvernon,E PIMA ST & N ALVERNON WAY,32.243415,-110.909335,,,,,,0
57,PKBI(NE),Park/Bilby,S PARK AVE & E MOSSMAN RD,32.141662,-110.956112,,,,,,0
58,PKAJ(NE),Park/Ajo,S PARK AVE & E AJO WAY,32.178281,-110.956155,,,,,,0
60,EU6S(NE),Euclid/6th St,N EUCLID AVE,32.228288,-110.959375,,,,,,0
64,FL1A(SE),Fort Lowell/1st Av,E FORT LOWELL RD & N 1ST AVE,32.264779,-110.960646,,,,,,0
65,EU6S(SW),Euclid/6th St,N EUCLID AVE & E 6TH ST,32.227424,-110.959551,,,,,,0
67,PKAJ(NW),Park/Ajo(NW),S PARK AVE & E AJO WAY,32.178865,-110.956384,,,,,,0
70,22WI(NW),22nd St/Wilmot,E 22ND ST & S WILMOT RD,32.206884,-110.858354,,,,,,0
71,22AV(SE),22nd St/Alvernon,E 22ND ST & S ALVERNON WAY,32.20689,-110.909141,,,,,,0
74,22AV(NW),22nd St/Alvernon,E 22ND ST & S ALVERNON WAY,32.207114,-110.910221,,,,,,0
75,22WI(SE),22nd St/Wilmot,E 22ND ST & S WILMOT RD,32.20658,-110.857583,,,,,,0
76,6A29(NE),6th Av/29th St,S 6TH AVE & E 29TH ST,32.200089,-110.968342,,,,,,0
78,BRRA(SE),Broadway/Randolph Way,E BROADWAY BLVD & S RANDOLPH WAY,32.221466,-110.917685,,,,,,0
81,WIBR(NE),Wilmot/Broadway,N WILMOT RD & E BROADWAY BLVD,32.221958,-110.857838,,,,,,0
82,TVSC(NW),Tanque Verde/Sabino Canyon,E TANQUE VERDE RD & N SABINO CANYON RD,32.250925,-110.841251,,,,,,0
85,SCTV(SE),Sabino Canyon/Tanque Verde,N SABINO CANYON RD,32.248977,-110.840632,,,,,,0
86,BRWI(NW),Broadway/Wilmot,E BROADWAY BLVD & N WILMOT RD,32.221399,-110.858377,,,,,,0
89,BRRA(NW),Broadway/Randolph Way,E BROADWAY BLVD & S RANDOLPH WAY,32.221737,-110.91861,,,,,,0
91,6A29(SW),6th Av/29th St,S 6TH AVE & W 29TH ST,32.199086,-110.968585,,,,,,0
92,CATV(NW),Catalina Hy/Tanque Verde,E CATALINA HWY & E TANQUE VERDE RD,32.259294,-110.798893,,,,,,0
96,GRCR(NW),Grant/Craycroft,E GRANT RD & N INDIAN RUINS RD,32.25076,-110.87575,,,,,,0
100,UOFA(IN),UA Mall,E UNIVERSITY BLVD & N CHERRY AVE,32.231654,-110.946656,,,,,,0
106,CAGR(SW),Campbell Av/Grant@Edison,N CAMPBELL AVE & E EDISON ST,32.249054,-110.944263,,,,,,0
107,GRAL(SE),Grant/Alvernon,E GRANT RD & N ALVERNON WAY,32.25048,-110.909524,,,,,,0
108,GRCR(SE),Grant/Craycroft,E GRANT RD & N CRAYCROFT RD,32.250559,-110.875034,,,,,,0
116,ORGR(SW),Oracle/Grant,N ORACLE RD & N ORACLE RD,32.249346,-110.97816,,,,,,0
117,AJPA(NW),Ajo/Park Av,W INA RD & N STARCOMMERCE WAY,32.177995,-110.957236,,,,,,0
118,TIA(IN),Tucson Intl Airport,S TUCSON BLVD & N TOOLE AVE,32.120709,-110.936431,,,,,,0
119,BUGA(SE),Butterfield Dr/Gas Rd,S BUTTERFIELD DR & E GAS RD,32.165981,-110.915749,,,,,,0
120,AVBR(NE),Alvernon/Broadway,N ALVERNON WAY & E BROADWAY BLVD,32.221808,-110.90947,,,,,,0
121,AVGR(NE),Alvernon/Grant,N ALVERNON WAY & E GRANT RD,32.251315,-110.909612,,,,,,0
122,DORI(SE),Dodge/River,N DODGE BLVD & E GLENN ST,32.273463,-110.913944,,,,,,0
124,AVGR(SW),Alvernon/Grant,N ALVERNON WAY & E GRANT RD,32.250399,-110.909802,,,,,,0
125,AVBR(SW),Alvernon/Broadway,S ALVERNON WAY & E BROADWAY BLVD,32.221323,-110.90973,,,,,,0
126,BUGA(SW),Butterfield Dr/Gas Rd,S BUTTERFIELD DR & E GAS RD,32.166386,-110.916004,,,,,,0
128,AJPA(SE),Ajo/Park Av,E AJO WY & S PARK AV,32.177774,-110.95603,,,,,,0
129,RTC(021),Downtown Ronstadt Center,W RONSTADT TRANSIT CENTER DR & E PENNINGTON ST,32.223327,-110.968228,,,,,,0
130,SMGR(NW),St Mary's/Grande,W SAINT MARYS RD & N GRANDE AVE,32.229673,-110.990063,,,,,,0
132,COGR(NW),Congress/Grande,W CONGRESS ST & N GRANDE AVE,32.22012,-110.988946,,,,,,0
134,CR29(NE),Craycroft/29th St(NE),S CRAYCROFT RD & E 29TH ST,32.200327,-110.874948,,,,,,0
135,29IR(SE),29th St/Irving,E 29TH ST & S IRVING AVE,32.199691,-110.90461,,,,,,0
136,AV22(SW),Alvernon/22nd St,S ALVERNON WAY & E 22ND ST,32.206401,-110.909716,,,,,,0
139,AV22(NE),Alvernon/22nd St,S ALVERNON WY & E 22ND ST,32.207339,-110.909478,,,,,,0
140,29IR(NW),29th St/Irving,E 29TH ST & S IRVING AVE,32.199915,-110.905492,,,,,,0
143,CC22(NE),Country Club/22nd St,S COUNTRY CLUB RD & E 21ST ST,32.208114,-110.926493,,,,,,0
144,CABR(NE),Campbell Av/Broadway,N CAMPBELL AVE & E 14TH ST,32.221627,-110.943863,,,,,,0
148,CAPR(NE),Campbell Av/Prince,N CAMPBELL AV & E PRINCE RD,32.272572,-110.943717,,,,,,0
155,12VA(SW),12th Av/Valencia,S 12TH AVE & W VALENCIA RD,32.132741,-110.977924,,,,,,0
156,1029(NE),10th Av/29th St,123456789 S 10TH AVE & W 29TH ST,32.199811,-110.974531,,,,,,0
157,ORGR(NE),Oracle/Grant,N ORACLE RD & W GRANT RD,32.251292,-110.977999,,,,,,0
159,LOIN(IN),Lowe's/Ina,N THORNYDALE PLAZA LOOP & W CRESTA LOMA DR,32.335591,-111.049849,,,,,,0
165,ORIN(SW),Oracle/Ina,N ORACLE RD & W INA RD,32.336553,-110.977695,,,,,,0
167,1029(NW),10th Av/29th St,S 10TH AVE & W 29TH ST,32.199785,-110.974704,,,,,,0
170,CCBR(NE),Country Club/Broadway,N COUNTRY CLUB RD & E BROADWAY BLVD,32.221776,-110.926487,,,,,,0
171,CCGR(NE),Country Club/Grant,N COUNTRY CLUB RD & E GRANT RD,32.251115,-110.926742,,,,,,0
172,PR1A(SW),Prince/1st Av,E PRINCE RD & N FLOWING WELLS RD,32.271972,-110.961523,,,,,,0
173,ROWE(SW),Romero/Wetmore,N ROMERO RD & W WETMORE RD,32.286342,-111.003593,,,,,,0
174,DACU(SW),Davis/Curtis,N DAVIS AVE & W CURTIS RD,32.301007,-111.026943,,,,,,0
177,PR1A(NW),Prince/1st Av,E PRINCE RD & N 1ST AV,32.272165,-110.961605,,,,,,0
178,CCGR(NW),Country Club/Grant,N COUNTRY CLUB RD & E GRANT RD,32.250593,-110.92697,,,,,,0
179,CCBR(SW),Country Club/Broadway,S COUNTRY CLUB RD & E BROADWAY BLVD,32.221228,-110.926705,,,,,,0
184,GROR(NW),Grant/Oracle,W GRANT RD & N ORACLE RD,32.250248,-110.978758,,,,,,0
186,GRSI(SE),Grant/Silverbell,W GRANT RD & N SILVERBELL RD,32.250548,-111.012778,,,,,,0
187,GROR(SE),Grant/Oracle,W GRANT RD & N ORACLE RD,32.2502,-110.977286,,,,,,0
188,SPGR(SE),Speedway/Grande,W SPEEDWAY BLVD & N GRANDE AVE,32.235468,-110.989849,,,,,,0
192,RISP(NW),Riverview/Speedway,N RIVERVIEW BLVD & W SPEEDWAY BLVD,32.236034,-110.994192,,,,,,0
193,PCCD(IN),Pima College Desert Vista Campus,S PCC DESERT VISTA PL & N TYNDALL AVE,32.145884,-110.988565,,,,,,0
194,MPVA(NE),Midvale Park/Valencia,S MIDVALE PARK RD & S COMMERCE CT,32.134049,-110.998871,,,,,,0
195,MIAJ(NE),Mission/Ajo,S MISSION RD & W AJO WAY,32.178262,-111.003154,,,,,,0
196,SMLC(SE),San Marcos/La Cholla,W SAN MARCOS BL & S LA CHOLLA BL,32.203073,-111.011308,,,,,,0
197,296A(SE),29th St/6th Av,E 29TH ST & S 6TH AVE,32.199513,-110.968255,,,,,,0
198,296A(NW),29th St/6th Av,W 29TH ST & S 6TH AVE,32.19958,-110.968866,,,,,,0
199,SMLC(NE),San Marcos/La Cholla,W SAN MARCOS BLVD & S LA CHOLLA BLVD,32.20324,-111.011255,,,,,,0
200,MIAJ(SW),Mission/Ajo,S MISSION RD & W AJO WAY,32.177506,-111.003405,,,,,,0
201,VAMP(NW),Valencia/Midvale Park Rd,W VALENCIA RD & S MIDVALE PARK RD,32.133888,-110.999654,,,,,,0
207,6ADR(NE),6th Av/Drexel,S 6TH AVE & W DREXEL RD,32.14882,-110.968021,,,,,,0
208,6ADR(SW),6th Av/Drexel,S 6TH AVE & E DREXEL RD,32.148324,-110.968079,,,,,,0
209,CR10(NW),Craycroft/I-10 TTT,S CRAYCROFT RD & E REX STRA,32.126855,-110.875169,,,,,,0
213,IRCA(NW),Irvington/Campbell,E IRVINGTON RD & S 3RD AVE,32.163349,-110.943988,,,,,,0
219,BEBH(NW),Belvedere/Benson Hwy,S BELVEDERE AVE & E BENSON HWY,32.139407,-110.896394,,,,,,0
220,CAAD(NW),Campbell Av/Adams,N CAMPBELL AVE & E GREENLEE RD,32.240794,-110.944095,,,,,,0
222,DRMI(SE),Drexel/Mission,W DREXEL RD & S MISSION RD,32.14833,-111.012549,,,,,,0
223,DRMI(NW),Drexel/Mission,W DREXEL RD & S MISSION RD,32.1484,-111.013603,,,,,,0
226,SPGR(NW),Speedway/Grande,W SPEEDWAY BLVD & N GRANDE AVE,32.235709,-110.990545,,,,,,0
229,VAMI(NE),Valencia/Missiondale,W VALENCIA RD & E VALENCIA RD,32.134095,-110.968907,,,,,,0
230,VAMP(SE),Valencia/Midvale Park Rd,W VALENCIA RD & S COMMERCE CT,32.133697,-110.997533,,,,,,0
231,CAVA(SW),Cardinal/Valencia,S CARDINAL AVE & W BARREL DR,32.132295,-111.028964,,,,,,0
238,VACR(SE),Valencia/Cardinal,W VALENCIA RD & S CARDINAL AVE,32.133689,-111.025762,,,,,,0
240,6AVA(NE),6th Av/Valencia,S 6TH AVE & E VALENCIA RD,32.134741,-110.967856,,,,,,0
242,SW22(NE),Swan/22nd St,S SWAN RD & E 24TH ST,32.207292,-110.89224,,,,,,0
244,SWSP(NE),Swan/Speedway,N SWAN RD & E SPEEDWAY BLVD,32.236474,-110.892516,,,,,,0
245,SWGR(NE),Swan/Grant,N SWAN RD & E GRANT RD,32.251004,-110.892518,,,,,,0
246,SWFL(SW),Swan/Ft. Lowell,N SWAN RD & E FORT LOWELL RD,32.261186,-110.892556,,,,,,0
248,SWGR(SW),Swan/Grant,N SWAN RD & E GRANT RD,32.250312,-110.892823,,,,,,0
249,SWSP(SW),Swan/Speedway,N SWAN RD & E 1ST ST,32.235812,-110.892769,,,,,,0
252,SW22(SW),Swan/22nd St,S SWAN RD & E JUAREZ ST,32.205761,-110.892452,,,,,,0
255,CR29(SW),Craycroft/29th St(SW),S CRAYCROFT RD & E 29TH ST,32.198955,-110.875238,,,,,,0
257,CRGR(NE),Craycroft/Grant,N CRAYCROFT RD & E GRANT RD,32.251393,-110.875251,,,,,,0
258,FLAV(NW),Fort Lowell/Alvernon,E FORT LOWELL RD & N ALVERNON WAY,32.265267,-110.910229,,,,,,0
259,FLWN(SE),Fort Lowell/Winstel,E FORT LOWELL RD & N WINSTEL BLVD,32.265043,-110.910813,,,,,,0
261,CRBR(SW),Craycroft/Broadway,S CRAYCROFT RD & E BROADWAY BLVD,32.221279,-110.875315,,,,,,0
265,PABR(SW),Pantano/Broadway,S PANTANO RD & E BROADWAY BLVD,32.220504,-110.823948,,,,,,0
266,PA22(NE),Pantano/22nd St(NE),S PANTANO RD & E 22ND ST,32.207,-110.823717,,,,,,0
268,AJMI(SE),Ajo/Mission,W AJO WAY & E WOODLAND RD,32.177788,-111.002689,,,,,,0
271,INLC(NW),Ina/La Cholla,W INA RD & N CHERRY AVE,32.337446,-111.014009,,,,,,0
272,INOL(SE),Ina/Oldfather,W INA RD & N OLDFATHER DR,32.33742,-111.055064,,,,,,0
274,BRCU(SW),SL/Broadway/Church,W BROADWAY BLVD & S CHURCH AVE,32.221038,-110.972576,,,,,,0
280,INCR(SE),Ina/Cmo De Las Capas,W INA RD & N CAMINO DE LA CRUZ,32.337525,-111.060326,,,,,,0
281,INOL(NE),Ina/Oldfather,W INA RD & N OLDFATHER DR,32.33771,-111.054381,,,,,,0
283,INLC(SW),Ina/La Cholla(SW),W INA RD & N OMAR DR,32.337197,-111.0161,,,,,,0
284,OROG(NE),Oracle/Orange Grove,N ORACLE RD & S PICNIC PL,32.323393,-110.974711,,,,,,0
287,OROG(SW),Oracle/Orange Grove,N ORACLE RD & W ORANGE GROVE RD,32.322255,-110.97492,,,,,,0
290,SUSW(SE),Sunrise Dr/Swan,E SUNRISE DR & N SWAN RD,32.308292,-110.891458,,,,,,0
292,AV27(NE),Alvernon/27th St,S ALVERNON WY & E 27TH ST,32.202915,-110.909425,,,,,,0
295,RACE,Raytheon/Center,S MISSILE LOOP & S RAYTHEON WAY,32.105239,-110.941273,,,,,,0
303,AV27(SW),Alvernon/27th St,S ALVERNON WY & E 27TH ST,32.202531,-110.909611,,,,,,0
304,22CR(NW),22nd St/Craycroft,E 22ND ST & S BEVERLY AVE,32.207076,-110.876059,,,,,,0
307,BRSW(SE),Broadway/Swan,E BROADWAY BLVD & S SWAN RD,32.221392,-110.891927,,,,,,0
308,BRSW(NW),Broadway/Swan,E BROADWAY BLVD & N SWAN RD,32.22168,-110.89269,,,,,,0
311,22CR(SE),22nd St/Craycroft,E 22ND ST & S CRAYCROFT RD,32.206763,-110.874616,,,,,,0
312,STCH(NE),Stella/Charlotte,E STELLA RD & S CHARLOTTE AV,32.184743,-110.83748,,,,,,0
321,RACG,Raytheon/C Gate,C GATE & RAYTHEON,32.101154,-110.938407,,,,,,0
322,R830,Raytheon/Building 830,S RAYTHEON WAY,32.104331,-110.938545,,,,,,0
324,R840,Raytheon/Building 840,BUILDING 840 & RAYTHEON,32.105267,-110.945805,,,,,,0
325,R847,Raytheon/Building 847,BUILDING 847 & RAYTHEON,32.105249,-110.953831,,,,,,0
330,PKST(NE),Park/Sun Tran,S PARK AV & PRICE CENTER RD,32.172544,-110.956164,,,,,,0
331,12AJ(NE),12th Av/Ajo,S 12TH AVE & W AJO WAY,32.178036,-110.977492,,,,,,0
333,1AFL(SW),1st Av/Ft Lowell,N 1ST AVE & E FORT LOWELL RD,32.264238,-110.961105,,,,,,0
334,PROR(NW),Prince/Oracle,W PRINCE RD & N ORACLE RD,32.272074,-110.978803,,,,,,0
335,PRRO(SE),Prince/Romero,W PRINCE RD & N POMONA RD,32.272207,-111.002861,,,,,,0
338,12AJ(SW),12th Av/Ajo,S 12TH AVE & W AJO WAY,32.177604,-110.977732,,,,,,0
342,PROR(SE),Prince/Oracle,W PRINCE RD & N ORACLE RD,32.27182,-110.977514,,,,,,0
343,1AFL(NE),1st Av/Ft Lowell,N 1ST AVE & E NAVAJO RD,32.265489,-110.960899,,,,,,0
10858,ALGR(NW),Alameda/Grossetta,E ALAMEDA ST,32.224425,-110.970862,,,,,,0
10859,CHPE(NW),Church/Pennington,N CHURCH AVE & W PENNINGTON ST,32.222785,-110.972711,,,,,,0
10860,BR6A(SE),SL/Broadway/6th Av,E BROADWAY BLVD & S 6TH AVE,32.221149,-110.968347,,,,,,0
10861,BR4A(SW),Broadway/4th Av,E BROADWAY BLVD & S 4TH AVE,32.221165,-110.965693,,,,,,0
10862,EU12(SW),Euclid/12th St,S EUCLID AVE & E 12TH ST,32.219714,-110.959534,,,,,,0
10864,22PK(SE),22nd St/Park,E 22ND ST & S PARK AVE,32.206806,-110.955605,,,,,,0
10868,CABC(SW),Campbell Av/Barleycorn,S CAMPBELL AV & E BARLEYCORN LN,32.199308,-110.943895,,,,,,0
10875,36KR(NW),36th St/Kramer,E 36TH ST & S KRAMER AVE,32.19252,-110.941977,,,,,,0
10893,CCAJ(SW),Country Club/Ajo,S COUNTRY CLUB RD & E AJO WAY,32.177423,-110.926531,,,,,,0
10895,CCAJ(NE),Country Club/Ajo,S COUNTRY CLUB RD & E AJO WAY,32.178506,-110.92627,,,,,,0
10899,CCFB(NE),Country Club/Food Bank,S COUNTRY CLUB RD & E RICKEY VISTA,32.188865,-110.926377,,,,,,0
10910,CADV(NE),Campbell Av/Duvall Vista,S CAMPBELL AVE & S CAPRI CIR,32.185488,-110.943479,,,,,,0
10911,CACV(NE),Campbell Av/Cochise Vista,S CAMPBELL AVE & E PINAL VISTA,32.187787,-110.94344,,,,,,0
10912,36CA(SE),36th St/Campbell(SE),E 36TH ST & S CAMPBELL AVE,32.192285,-110.942981,,,,,,0
10919,CABC(NE),Campbell Av/Barleycorn,S CAMPBELL AV & E BARLEYCORN LN,32.1999,-110.943395,,,,,,0
10922,22SR(NW),22nd St/Santa Rita,E 22ND ST & S SANTA RITA AVE,32.206973,-110.953355,,,,,,0
10923,22PK(NW),22nd St/Park,E 22ND ST & S PARK AVE,32.206981,-110.956865,,,,,,0
10925,BREU(NW),Broadway/Euclid,E BROADWAY BLVD & N EUCLID AVE,32.22152,-110.959897,,,,,,0
10926,6AIR(NE),6th Av/Irvington,S 6TH AVE & E IRVINGTON RD,32.163709,-110.968052,,,,,,0
10927,6AOK(NE),6th Av/Oklahoma,S 6TH AVE & W OKLAHOMA ST,32.165405,-110.968078,,,,,,0
10928,6AIL(SE),6th Av/Illinois,S 6TH AVE & W ILLINOIS ST,32.168589,-110.968109,,,,,,0
10929,6AMI(SE),6th Av/Michigan,S 6TH AVE & E MICHIGAN DR,32.170158,-110.968115,,,,,,0
10930,6ADI(SE),6th Av/District,S 6TH AVE & E DISTRICT ST,32.173801,-110.968131,,,,,,0
10931,6APR(SE),6th Av/President,S 6TH AVE & E LINCOLN ST,32.176542,-110.968173,,,,,,0
10932,AJ6A(SE),Ajo/6th Av,E AJO WAY & S 6TH AVE,32.177805,-110.967818,,,,,,0
10934,AJTP(SW),Ajo/Thomas O Price Center,E AJO WAY & S PARK AVE,32.17782,-110.959004,,,,,,0
10935,AJBH(SE),Ajo/Benson Hwy,E AJO WAY & E BENSON HWY,32.177822,-110.951494,,,,,,0
10937,AJJC(EB),Ajo/Juvenile Center,,32.177784,-110.939097,,,,,,0
10938,AJPC(EB),Ajo/P.C. Sheriffs Dept,,32.177801,-110.936458,,,,,,0
10939,AJFO(SE),Ajo/Forgeus,E AJO WAY & S FORGEUS AVE,32.177853,-110.931857,,,,,,0
10941,MILC(NE),Milber St/La Colina Health Care,E MILBER ST & S COUNTRY CLUB RD,32.172748,-110.928424,,,,,,0
10942,AJCC(SE),Ajo/Country Club,E AJO WAY & S COUNTRY CLUB RD,32.177816,-110.925791,,,,,,0
10943,AJRA(SE),Ajo/Randolph Av,E AJO WAY & S RANDOLPH AVE,32.177774,-110.922051,,,,,,0
10945,TUCO(NE),Tucson Bl/Corona,S TUCSON BLVD & E CORONA RD,32.123999,-110.934461,,,,,,0
10946,TUEL(NE),Tucson Bl/Elvira,S TUCSON BLVD & E ELVIRA RD,32.12715,-110.934493,,,,,,0
10947,TUME(SE),Tucson Bl/Medina,S TUCSON BLVD & E MEDINA RD,32.130088,-110.934479,,,,,,0
10948,VATU(SE),Valencia/Tucson Blvd,E VALENCIA RD & S TUCSON BLVD,32.133981,-110.933834,,,,,,0
10949,VABC(SE),Valencia/Bay Colony,E VALENCIA RD & S BAY COLONY DR,32.134036,-110.929604,,,,,,0
10950,VACC(SE),Valencia/Country Club,E VALENCIA RD & COUNTRY CLUB,32.133993,-110.925136,,,,,,0
10951,VALF(SE),Valencia/Lisa Frank Dr,E VALENCIA RD & E HEMISPHERE LOOP,32.134065,-110.921434,,,,,,0
10952,PVBR(SE),Palo Verde/Britannia,S PALO VERDE RD & E BRITANNIA DR,32.135745,-110.917588,,,,,,0
10953,PVMO(NE),Palo Verde/Mossman,S PALO VERDE RD & E MOSSMAN RD,32.143485,-110.917664,,,,,,0
10954,PVBH(NE),Palo Verde/Benson Hwy,S PALO VERDE RD & E BENSON HWY,32.15259,-110.917472,,,,,,0
10955,PVNE(NE),Palo Verde/Nebraska,S PALO VERDE RD & E NEBRASKA SV,32.155832,-110.917504,,,,,,0
10956,HOIR(NE),Hotel Dr/Irvington,S HOTEL DR & E IRVINGTON RD,32.164169,-110.914536,,,,,,0
10958,PVCH(NE),Palo Verde/Coach Dr,S PALO VERDE RD & S COACH DR,32.170899,-110.917534,,,,,,0
10959,PVCO(NE),Palo Verde/Columbia,S PALO VERDE RD & E COLUMBIA ST,32.173435,-110.917601,,,,,,0
10960,PVAJ(NE),Palo Verde/Ajo,S PALO VERDE RD & E AJO WAY,32.178576,-110.917623,,,,,,0
10961,PVVE(NE),Palo Verde/Veterans,S PALO VERDE RD & E VETERANS ST,32.181892,-110.917677,,,,,,0
10962,PV44(NE),Palo Verde/44th St,S PALO VERDE RD & E 44TH ST,32.185935,-110.917693,,,,,,0
10969,AV29(NE),Alvernon/29th St,S ALVERNON WAY & E 29TH ST,32.200443,-110.909348,,,,,,0
10972,AVSB(NE),Alvernon/Sta Barbara,S ALVERNON WAY & E SANTA BARBARA AVE,32.211805,-110.909531,,,,,,0
10973,AVHA(NE),Alvernon/Hayne,S ALVERNON WAY & E TIMROD ST,32.214604,-110.909475,,,,,,0
10974,AVWH(NE),Alvernon/Whittier,S ALVERNON WAY & E WHITTIER ST,32.218166,-110.909517,,,,,,0
10977,AVHO(SE),Alvernon/Holmes,N ALVERNON WAY & E HOLMES ST,32.226804,-110.909427,,,,,,0
10978,AV5S(NE),Alvernon/5th St,N ALVERNON WAY & E 4TH ST,32.229333,-110.909499,,,,,,0
10979,AV3S(SE),Alvernon/3rd St,N ALVERNON WAY & E 4TH ST,32.231549,-110.909519,,,,,,0
10980,AV2S(NE),Alvernon/2nd St,N ALVERNON WAY & E 2ND ST,32.234588,-110.909535,,,,,,0
10981,AVSP(NE),Alvernon/Speedway,N ALVERNON WAY & E WHITTIER ST,32.236453,-110.909602,,,,,,0
10982,AVFA(NE),Alvernon/Fairmount,N ALVERNON WAY & E FAIRMOUNT ST,32.240087,-110.909653,,,,,,0
10983,AVPI(NE),Alvernon/Pima,N ALVERNON WAY & E LOUIS LN,32.243786,-110.909575,,,,,,0
10984,AVSE(NE),Alvernon/Seneca,N ALVERNON WAY & E SENECA ST,32.247259,-110.909634,,,,,,0
10985,AVFL(NE),Alvernon/Flower,N ALVERNON WAY & E FLOWER ST,32.25451,-110.909662,,,,,,0
10986,AVGL(NE),Alvernon/Glenn,N ALVERNON WAY & E GLENN ST,32.258229,-110.909697,,,,,,0
10987,AVBL(NE),Alvernon/Blacklidge,N ALVERNON WAY & E BLACKLIDGE DR,32.261777,-110.909705,,,,,,0
10994,FLDO(SE),Fort Lowell/Dodge,E FORT LOWELL RD & N CHAPEL AVE,32.265031,-110.913966,,,,,,0
10996,AVBL(NW),Alvernon/Blacklidge,N ALVERNON WAY & E BLACKLIDGE DR,32.261806,-110.909908,,,,,,0
10997,AVGL(NW),Alvernon/Glenn,N ALVERNON WAY & E GLENN ST,32.258186,-110.909943,,,,,,0
10998,AVFL(NW),Alvernon/Flower,N ALVERNON WAY & E FLOWER ST,32.254412,-110.909844,,,,,,0
11000,AVSE(SW),Alvernon/Seneca,N ALVERNON WAY & E SENECA ST,32.246881,-110.909797,,,,,,0
11001,AVPI(SW),Alvernon/Pima,N ALVERNON WAY & E PIMA ST,32.243048,-110.909753,,,,,,0
11002,AVFA(SW),Alvernon/Fairmount,N ALVERNON WAY & E FAIRMOUNT ST,32.239604,-110.909821,,,,,,0
11005,AV3S(SW),Alvernon/3rd St,N ALVERNON WAY & E 3RD ST,32.232326,-110.909729,,,,,,0
11007,AVDS(NW),Alvernon/C De Soto,N ALVERNON WAY & E C DE SOTO,32.225326,-110.909602,,,,,,0
11008,BRAL(SE),Broadway/Alvernon,E BROADWAY BLVD & S ALVERNON WAY,32.221436,-110.909156,,,,,,0
11012,AVWH(NW),Alvernon/Whittier,S ALVERNON WY & E WHITTIER ST,32.217974,-110.909699,,,,,,0
11013,AVHA(SW),Alvernon/Hayne,S ALVERNON WAY & E HAYNE ST,32.213996,-110.909707,,,,,,0
11014,AVDO(SW),Alvernon/Pso Dorado,S ALVERNON WAY & E PSO DORADO,32.210197,-110.909783,,,,,,0
11018,AV32(NW),Alvernon/32nd St(NW),S ALVERNON WAY,32.201038,-110.90962,,,,,,0
11027,AV32(SW),Alvernon/32nd St(SW),S ALVERNON WAY & E HAYNE ST,32.199108,-110.909527,,,,,,0
11029,PVVE(SW),Palo Verde/Veterans,S PALO VERDE RD & E VETERANS ST,32.181507,-110.917851,,,,,,0
11030,PVAJ(SW),Palo Verde/Ajo,S PALO VERDE RD & E AJO WAY,32.177547,-110.917891,,,,,,0
11031,PVCO(SW),Palo Verde/Columbia,S PALO VERDE RD & E COLUMBIA ST,32.172579,-110.917783,,,,,,0
11032,PVMN(SW),Palo Verde/Michigan,S PALO VERDE RD & E MICHIGAN ST,32.170264,-110.917829,,,,,,0
11033,GAPV(SE),Gas Rd/Palo Verde,E GAS RD & S PALO VERDE RD,32.16695,-110.917394,,,,,,0
11034,HOIR(NW),Hotel Dr/Irvington,S HOTEL DR & E IRVINGTON RD,32.16387,-110.914644,,,,,,0
11035,PVCR(SW),Palo Verde/Corporate,S PALO VERDE RD & S JULIAN DR,32.15722,-110.917707,,,,,,0
11037,PVBH(SW),Palo Verde/Benson Hwy,S PALO VERDE RD & E BENSON HWY,32.151499,-110.91784,,,,,,0
11039,PVMO(SW),Palo Verde/Mossman,S PALO VERDE RD & E MOSSMAN RD,32.14294,-110.917843,,,,,,0
11040,PVHE(NE),Palo Verde/Hemisphere,S PALO VERDE RD & E HEMISPHERE LOOP,32.139219,-110.917643,,,,,,0
11041,PVBR(NW),Palo Verde/Britannia,S PALO VERDE RD & E HEMISPHERE LOOP,32.136863,-110.917838,,,,,,0
11042,VAHM(NW),Valencia/Hemisphere,E VALENCIA RD & E HEMISPHERE LOOP,32.1343,-110.922341,,,,,,0
11043,VACC(NW),Valencia/Country Club,E VALENCIA RD & S COUNTRY CLUB RD,32.134212,-110.927056,,,,,,0
11044,VABC*NW*,Valencia/Bay Colony,E VALENCIA RD & S BAY COLONY DR,32.134204,-110.930326,,,,,,0
11045,TUVA(SW),Tucson Bl/Valencia,S TUCSON BLVD & E VALENCIA RD,32.132984,-110.934829,,,,,,0
11046,TUME(SW),Tucson Bl/Medina,S TUCSON BLVD & E ARAGON RD,32.129979,-110.934808,,,,,,0
11047,TUEL(NW),Tucson Bl/Elvira,S TUCSON BLVD & E ELVIRA RD,32.126963,-110.934726,,,,,,0
11048,TUCO(NW),Tucson Bl/Corona,S TUCSON BLVD & E ELVIRA RD,32.12462,-110.934807,,,,,,0
11049,AJPV(NW),Ajo/Palo Verde,E AJO WAY & S PALO VERDE RD,32.178176,-110.919383,,,,,,0
11050,AJRA(NW),Ajo/Randolph Av,E AJO WAY & S RANDOLPH AVE,32.178184,-110.922951,,,,,,0
11053,AJFO(NW),Ajo/Forgeus,E AJO WAY & S FORGEUS AVE,32.178047,-110.932545,,,,,,0
11054,AJPC(WB),Ajo/P.C. Sheriffs Dept.,E AJO WAY & S FORGEUS AVE,32.178033,-110.936186,,,,,,0
11055,AJJC(WB),Ajo/Juvenile Court,E AJO WAY & W I10 RAMP,32.178005,-110.939841,,,,,,0
11056,AJBE(NW),Ajo/Bernard,E AJO WAY & E BERNARD DR,32.177981,-110.950232,,,,,,0
11057,AJBH(NW),Ajo/Benson Hwy,E AJO WAY & E BENSON HWY,32.177965,-110.952968,,,,,,0
11058,AJGE(MB),Ajo/Golden Eagle Distrib,E AJO WAY & S 2ND AVE,32.17797,-110.95984,,,,,,0
11059,AJ2A(NW),Ajo/2rd Av,E AJO WAY & S 2ND AVE,32.177931,-110.963149,,,,,,0
11060,6AAJ(NE),6th Av/Ajo,S 6TH AVE & W AJO WAY,32.178202,-110.968172,,,,,,0
11061,6ADI(SW),6th Av/District,S 6TH AVE & W DISTRICT ST,32.173812,-110.968322,,,,,,0
11062,KI36(NE),Kino Pw/36th St,W AVIATION DR,32.193075,-110.947265,,,,,,0
11063,6AMI(NW),6th Av/Michigan,S 6TH AVE & W MICHIGAN DR,32.170709,-110.9683,,,,,,0
11064,6AIL(NW),6th Av/Illinois,S 6TH AVE & W ILLINOIS ST,32.169077,-110.968295,,,,,,0
11065,6AOK(SW),6th Av/Oklahoma,S 6TH AV & W OKLAHOMA ST,32.164891,-110.968317,,,,,,0
11066,SPCU(NE),Speedway/Cummings,E SPEEDWAY BL & N RIVERVIEW BL,32.235532,-110.79447,,,,,,0
11067,SPPP(NW),Speedway/Palms Park Dr.,E SPEEDWAY BLVD & E PALMS PARK DR,32.235551,-110.79863,,,,,,0
11068,SPRS(NW),Speedway/Av Ricardo Small,E SPEEDWAY BLVD & N AVE RICARDO SMALL,32.235526,-110.801649,,,,,,0
11070,SPCS(NW),Speedway/Cam Seco,E SPEEDWAY BLVD & N CAMINO SECO,32.235623,-110.807567,,,,,,0
11074,SPSR(NE),Speedway/Sarnoff,E SPEEDWAY BLVD & N SARNOFF DR,32.235625,-110.816424,,,,,,0
11076,SPPA(NW),Speedway/Pantano,E SPEEDWAY BLVD & N PANTANO RD,32.235669,-110.824278,,,,,,0
11077,SPGD(NE),Speedway/Grady,E SPEEDWAY BLVD & E GRADY AVE,32.23568,-110.827695,,,,,,0
11078,SP73(WB),Speedway/7351 E Speedway,,32.23572,-110.835254,,,,,,0
11085,TESE(NW),Tetakusim Rd/Settler Av,W TETAKUSIM RD & S SETTLER AVE,32.115586,-111.05512,,,,,,0
11086,POTE(SW),Cmo Potam /C Tetakusim,S CAMINO POTAM & W CALLE TETAKUSIM,32.114482,-111.066837,,,,,,0
11087,POBF(MB),Cmo Potam /Ball Field,S CAMINO POTAM & W CALLE TORIM,32.113414,-111.066859,,,,,,0
11091,TESP(SW),Tetakusim Rd/Sparrow Av,W TETAKUSIM RD & S CAMINO DE OESTE,32.115339,-111.057168,,,,,,0
11092,SOTE(NE),Sorrel Ln/Tetakusim Rd,S SORREL LN & W TETAKUSIM RD,32.116567,-111.045867,,,,,,0
11093,LRBO(SE),Los Reales/Bolingbroke,W LOS REALES RD & S BOLINGBROKE AVE,32.119067,-111.042833,,,,,,0
11094,LRBA(SW),Los Reales/C de la Bajada,W LOS REALES RD & S BRACKENBURY DR,32.119045,-111.039581,,,,,,0
11095,LRAL(SE),Los Reales/Cmo Alegre,W LOS REALES RD & S CMO LIBERTAD,32.119078,-111.033223,,,,,,0
11096,CALR(NE),Cardinal/Los Reales,S CARDINAL AV & W LOS REALES RD,32.119748,-111.028858,,,,,,0
11097,CATI(NE),Cardinal/Tigre,S CARDINAL AVE & W C DEL TIGRE,32.124484,-111.028958,,,,,,0
11098,CAPA(SE),Cardinal/Pajarito,S CARDINAL AVE & W C PAJARITO,32.127804,-111.028904,,,,,,0
11099,CAPI(NE),Cardinal/Pincushion,S CARDINAL AVE & W PINCUSHION LN,32.131237,-111.0288,,,,,,0
11103,CACE(SW),Cardinal/Century Dr,S CARDINAL AVE & W CENTURY DR,32.135717,-111.028773,,,,,,0
11105,VAMI(SE),Valencia/Mission,W VALENCIA RD & S MISSION RD,32.133757,-111.015409,,,,,,0
11107,VAIA(SE),Valencia/Indian Agency Rd,W VALENCIA RD & S OAK TREE DR,32.133721,-111.001697,,,,,,0
11108,VACO(SE),Valencia/Commerce Court,W VALENCIA RD & W COMMERCE CT,32.133674,-110.995694,,,,,,0
11109,VAPA(SE),Valencia/Pacheco,W VALENCIA RD & S PACHECO AVE,32.133881,-110.979072,,,,,,0
11111,6AVL(SE),6th Av/Valeska,S 6TH AVE & W VALESKA ST,32.137173,-110.967871,,,,,,0
11112,6ABI(NE),6th Av/Bilby,S 6TH AVE & W BILBY RD,32.141625,-110.967891,,,,,,0
11113,6ADE(NE),6th Av/Delta,S 6TH AV & E DELTA RD,32.145262,-110.967893,,,,,,0
11117,LINE(NE),Liberty/Nebraska,S LIBERTY AVE & W NEBRASKA ST,32.156247,-110.973189,,,,,,0
11121,KOOS(NE),Kolb/C Osita,S KOLB RD & E C OSITO,32.196146,-110.840833,,,,,,0
11126,KOPR(NE),Kolb/Princeton,S KOLB RD & E PRINCETON PL,32.211175,-110.840845,,,,,,0
11129,KOBR(NE),Kolb/Broadway,N KOLB RD & E BROADWAY BLVD,32.221488,-110.840889,,,,,,0
11130,KOKI(NE),Kolb/Kingston,N KOLB RD & E KINGSTON DR,32.22624,-110.840867,,,,,,0
11133,SPKO(NW),Speedway/Kolb,E SPEEDWAY BLVD & N KOLB RD,32.235646,-110.841759,,,,,,0
11134,SPDR(NW),Speedway/Dorado,E SPEEDWAY BLVD & E DORADO BLVD,32.235681,-110.845308,,,,,,0
11135,SPCB(NE),Speedway/Caribe,E SPEEDWAY BLVD & N CARIBE AVE,32.235694,-110.846847,,,,,,0
11136,SPNA(NW),Speedway/Natachee,E SPEEDWAY BLVD & N EL DORADO PL,32.235688,-110.850571,,,,,,0
11137,SPRA(NW),Speedway/Radisson Hotel,E SPEEDWAY BLVD & N BARBARA WORTH,32.235631,-110.853747,,,,,,0
11138,SPWI(NW),Speedway/Wilmot,E SPEEDWAY BLVD & N WILMOT RD,32.236087,-110.858525,,,,,,0
11139,SPAL(NE),Speedway/Alamo,E SPEEDWAY BLVD & N ALAMO AVE,32.236225,-110.862256,,,,,,0
11140,SPSA(NW),Speedway/Sahuara,E SPEEDWAY BLVD & N SAHUARA AVE,32.236245,-110.866986,,,,,,0
11141,SPVB(NW),Speedway/Van Buren,E SPEEDWAY BLVD & N VAN BUREN AVE,32.236257,-110.871262,,,,,,0
11142,SPCR(NW),Speedway/Craycroft,E SPEEDWAY BLVD & N CRAYCROFT RD,32.236285,-110.875949,,,,,,0
11143,SPBE(NW),Speedway/Beverly,E SPEEDWAY BLVD & N BEVERLY AVE,32.236333,-110.880034,,,,,,0
11144,SPRO(NW),Speedway/Rosemont,E SPEEDWAY BLVD & N ROSEMONT BLVD,32.236314,-110.884438,,,,,,0
11145,SPAR(NW),Speedway/Arcadia,E SPEEDWAY BLVD & N ARCADIA AVE,32.236268,-110.888604,,,,,,0
11146,SPSW(NW),Speedway/Swan,E SPEEDWAY BLVD & N SWAN RD,32.236309,-110.893205,,,,,,0
11147,SPCT(NE),Speedway/Catalina,E SPEEDWAY BLVD & N CATALINA AVE,32.236314,-110.898821,,,,,,0
11148,SPCO(NW),Speedway/Columbus,E SPEEDWAY BLVD & N BRYANT AVE,32.236279,-110.902074,,,,,,0
11149,SPAT(NW),Speedway/Arlington,E SPEEDWAY BLVD & N ARLINGTON BLVD,32.236323,-110.905982,,,,,,0
11150,SPDO(NE),Speedway/Dodge,E SPEEDWAY BLVD & N DODGE BLVD,32.23629,-110.913614,,,,,,0
11152,SPHO(NE),Speedway/Howard,E SPEEDWAY BLVD & N HOWARD BLVD,32.236244,-110.922183,,,,,,0
11153,SPCC(NW),Speedway/Country Club,E SPEEDWAY BLVD & N COUNTRY CLUB RD,32.236093,-110.927246,,,,,,0
11154,SPTR(NE),Speedway/Treat,E SPEEDWAY BLVD & N TREAT AVE,32.236217,-110.930605,,,,,,0
11156,SPPL(NW),Speedway/Plumer,E SPEEDWAY BLVD & N PLUMER AVE,32.23613,-110.940023,,,,,,0
11157,SPWA(NW),Speedway/Warren Underpass,E SPEEDWAY BLVD & WARREN UNDERPASS,32.236135,-110.947087,,,,,,0
11161,SPOL(NE),Speedway/Olive Underpass,E SPEEDWAY BLVD & N SANTA RITA AVE,32.236069,-110.955339,,,,,,0
11163,SPEU(NW),Speedway/Euclid,E SPEEDWAY BLVD & N EUCLID AVE,32.236136,-110.960148,,,,,,0
11164,SP2A(NW),Speedway/2nd Av,E SPEEDWAY BL & N BEAN AV,32.236001,-110.962964,,,,,,0
11165,SP4A(NW),Speedway/4th Av,E SPEEDWAY BLVD & N 4TH AVE,32.236042,-110.965911,,,,,,0
11166,SP6A(NE),Speedway/6th Av,E SPEEDWAY BL & N 6TH AV,32.235993,-110.968584,,,,,,0
11167,STSP(SW),Stone/Speedway,N STONE AVE & W SPEEDWAY BLVD,32.23521,-110.971944,,,,,,0
11168,STUN(SW),Stone/University,N STONE AVE & W UNIVERSITY BLVD,32.231337,-110.971872,,,,,,0
11170,STFR(SW),Stone/Franklin,N STONE AVE & W COUNCIL ST,32.225842,-110.971827,,,,,,0
11171,STAL(NW),Stone/Alameda,N STONE AVE & E ALAMEDA ST,32.2246,-110.971759,,,,,,0
11172,ALCO(NW),Alameda/Court Av,W ALAMEDA ST & N COURT AVE,32.223427,-110.97419,,,,,,0
11177,SP6A(SE),Speedway/6th Av,E SPEEDWAY BL & N 6TH AV,32.235831,-110.968544,,,,,,0
11178,SP4A(SE),Speedway/4th Av,E SPEEDWAY BLVD & N 4TH AVE,32.235838,-110.965335,,,,,,0
11179,SP2A(SE),Speedway/2nd Av,E SPEEDWAY BL & N 2ND AV,32.235835,-110.962379,,,,,,0
11180,SPEU(SE),Speedway/Euclid,E SPEEDWAY BLVD & N EUCLID AVE,32.23585,-110.958312,,,,,,0
11181,SPOL(SW),Speedway/Olive Underpass,E SPEEDWAY BLVD & OLIVE UNDERPASS,32.235878,-110.955184,,,,,,0
11182,SPHI(SW),Speedway/Highland Underpass,E SPEEDWAY BL & N MOUNTAIN AV,32.235885,-110.951063,,,,,,0
11183,SPWA(SW),Speedway/Warren Underpass,E SPEEDWAY BLVD & WARREN UNDERPASS,32.235886,-110.947313,,,,,,0
11184,SPPL(SE),Speedway/Plumer,E SPEEDWAY BLVD & N WILSON AVE,32.235941,-110.939368,,,,,,0
11185,SPTU(SE),Speedway/Tucson,E SPEEDWAY BLVD & N TUCSON BLVD,32.235948,-110.934632,,,,,,0
11186,SPTR(SE),Speedway/Treat,E SPEEDWAY BLVD & N TREAT AVE,32.235953,-110.930831,,,,,,0
11187,SPCC(SE),Speedway/Country Club,E SPEEDWAY BLVD & N COUNTRY CLUB RD,32.235826,-110.926364,,,,,,0
11188,SPMI(EB),Speedway/Miramonte,E SPEEDWAY BLVD & N CMO MIRAMONTE,32.236058,-110.921182,,,,,,0
11189,SPRI(SE),Speedway/Richey,E SPEEDWAY BLVD & N RICHEY BLVD,32.236102,-110.915664,,,,,,0
11190,SPDO(SE),Speedway/Dodge,E SPEEDWAY BLVD & N DODGE BLVD,32.236105,-110.912955,,,,,,0
11191,SPAT(SE),Speedway/Arlington,E SPEEDWAY BLVD & N ARLINGTON BLVD,32.23609,-110.904999,,,,,,0
11193,SPBL(SE),Speedway/Belvedere,E SPEEDWAY BLVD & N BELVEDERE AVE,32.236132,-110.896562,,,,,,0
11194,SPSW(SE),Speedway/Swan,E SPEEDWAY BLVD & N SWAN RD,32.236094,-110.892203,,,,,,0
11195,SPAR(SE),Speedway/Arcadia,E SPEEDWAY BLVD & N ARCADIA AVE,32.236079,-110.888044,,,,,,0
11196,SPRO(SE),Speedway/Rosemont,E SPEEDWAY BLVD & N ROSEMONT BLVD,32.236071,-110.883587,,,,,,0
11197,SPBE(SE),Speedway/Beverly,E SPEEDWAY BLVD & N BEVERLY AVE,32.236097,-110.879466,,,,,,0
11198,SPCR(SE),Speedway/Craycroft,E SPEEDWAY BLVD & N CRAYCROFT RD,32.236085,-110.875072,,,,,,0
11200,SPVB(SE),Speedway/Van Buren,E SPEEDWAY BLVD & N VAN BUREN AVE,32.23609,-110.870646,,,,,,0
11201,SPSA(SE),Speedway/Sahuara,E SPEEDWAY BLVD & N SAHUARA AVE,32.236036,-110.866658,,,,,,0
11202,SPSO(SE),Speedway/Sonoita,E SPEEDWAY BLVD & N SONOITA AVE,32.236056,-110.863948,,,,,,0
11204,SPRA(SE),Speedway/Radisson Hotel,E SPEEDWAY BLVD & N BARBARA WORTH,32.235459,-110.852651,,,,,,0
11205,SPNA(SE),Speedway/Natachee,E SPEEDWAY BLVD & N NATACHEE,32.235438,-110.849725,,,,,,0
11207,SPDR(SE),Speedway/Dorado,E SPEEDWAY BLVD & E DORADO BLVD,32.235485,-110.844737,,,,,,0
11209,KOSP(SW),Kolb/Speedway,N KOLB RD & E SPEEDWAY BLVD,32.234892,-110.841132,,,,,,0
11212,KOKI(SW),Kolb/Kingston,N KOLB RD & E KINGSTON DR,32.225776,-110.841096,,,,,,0
11213,KOKM(NW),Kolb/K-Mart,N KOLB RD,32.222626,-110.84111,,,,,,0
11214,KOBR(SW),Kolb/Broadway,S KOLB RD & E BROADWAY BLVD,32.220635,-110.841133,,,,,,0
11217,KOPR*SW*,Kolb/Princeton,S KOLB RD & E PRINCETON PL,32.210585,-110.841097,,,,,,0
11220,KOIL(SW),Kolb/C Ileo,S KOLB RD & E 29TH ST,32.198744,-110.841071,,,,,,0
11228,SPKO(SE),Speedway/Kolb,E SPEEDWAY BLVD & N KOLB RD,32.235472,-110.840407,,,,,,0
11230,SP73(EB),Speedway/7350 E Speedway,7400 E SPEEDWAY BLVD & N PRESSYC PL,32.235446,-110.834798,,,,,,0
11232,SPPA(SE),Speedway/Pantano,E SPEEDWAY BLVD & N PANTANO RD,32.235464,-110.823364,,,,,,0
11234,SPWO*SE*,Speedway/Woodridge Apts,,32.235421,-110.81592,,,,,,0
11235,SPKE(SE),Speedway/Keesal,E SPEEDWAY BLVD & N ELECTRA DR,32.235397,-110.812672,,,,,,0
11236,SPGO*SE*,Speedway/Goebel,E SPEEDWAY BLVD & N GOEBEL AVE,32.235394,-110.80934,,,,,,0
11237,SPCS(SE),Speedway/Cam Seco,E SPEEDWAY BLVD & N CAMINO SECO,32.235382,-110.806194,,,,,,0
11239,SPRS(SE),Speedway/Av Ricardo Small,E SPEEDWAY BL & N AVENIDA RICARDO SMAL,32.235378,-110.800764,,,,,,0
11240,SPIG(SE),Speedway/Igo Way,E SPEEDWAY BLVD & N IGO WAY,32.235427,-110.79789,,,,,,0
11241,SPCU(SE),Speedway/Cummings,E SPEEDWAY BLVD & N CUMMINGS DR,32.23537,-110.794339,,,,,,0
11246,32CH(NW),32nd St/Chrysler,E 32ND ST & S DODGE BLVD,32.199391,-110.914192,,,,,,0
11247,SIPV(NW),Silverlake/Palo Verde,E SILVERLAKE RD & S PALO VERDE AVE,32.199759,-110.918377,,,,,,0
11249,SIRW(NW),Silverlake/Randolph Way,E SILVERLAKE RD & S HOWARD SV,32.199682,-110.922556,,,,,,0
11250,CCSI(NE),Country Club/Silverlake,S COUNTRY CLUB RD & E SILVERLAKE RD,32.199908,-110.92661,,,,,,0
11251,CC27(NE),Country Club/27th St,S COUNTRY CLUB RD & E 27TH ST,32.203006,-110.926589,,,,,,0
11252,CC23(SE),Country Club/23rd St,S COUNTRY CLUB RD & E 23RD ST,32.205914,-110.926675,,,,,,0
11255,CCEA(NE),Country Club/Eastland,S COUNTRY CLUB RD & E EASTLAND ST,32.211869,-110.926519,,,,,,0
11256,CC17(NE),Country Club/17th St,S COUNTRY CLUB RD & E CMO CAMPESTRE,32.213599,-110.926551,,,,,,0
11257,CCAC(NE),Country Club/Arroyo Chico,S COUNTRY CLUB RD & E ARROYO CHICO,32.216847,-110.92655,,,,,,0
11263,PKDR(NE),Park/Drachman,N PARK AVE & E DRACHMAN ST,32.239801,-110.956756,,,,,,0
11264,PKEL(NE),Park/Elm,N PARK AVE & E ELM ST,32.242663,-110.956776,,,,,,0
11265,PKWA(NE),Park/Waverly,N PARK AV & E WAVERLY ST,32.246408,-110.95679,,,,,,0
11266,PKGR(NE),Park/Grant,N PARK AVE & E GRANT RD,32.250103,-110.956828,,,,,,0
11267,PKCO(NE),Park/Copper,N PARK AVE & E COPPER ST,32.254179,-110.956744,,,,,,0
11268,PKGL(SE),Park/Glenn,N PARK AVE & E GLENN ST,32.257371,-110.956711,,,,,,0
11272,GLPL(SE),Glenn/Plumer,E GLENN ST & N PLUMER AVE,32.257558,-110.939325,,,,,,0
11273,GLTU(SE),Glenn/Tucson,E GLENN ST & N TUCSON BLVD,32.257579,-110.934995,,,,,,0
11274,GLTR(SE),Glenn/Treat,E GLENN ST & N TREAT AVE,32.257629,-110.930781,,,,,,0
11275,GLCC(SE),Glenn/Country Club,E GLENN ST & N COUNTRY CLUB RD,32.257632,-110.926296,,,,,,0
11276,GLED(SW),Glenn/Edith,E GLENN ST & N EDITH BLVD,32.257685,-110.922778,,,,,,0
11277,GLPV(SE),Glenn/Palo Verde,E GLENN ST & N PALO VERDE AVE,32.257748,-110.917959,,,,,,0
11278,GLDO(SE),Glenn/Dodge,E GLENN ST & N DODGE BLVD,32.257757,-110.913728,,,,,,0
11288,GLCB(NW),Glenn/Columbus,E GLENN ST & N FAIR OAKS AVE,32.257954,-110.901795,,,,,,0
11289,GLSY(NE),Glenn/Sycamore,E GLENN ST & N C DE ROMY,32.257918,-110.905905,,,,,,0
11290,GLDO(NW),Glenn/Dodge,E GLENN ST & N RICHEY BLVD,32.257886,-110.914694,,,,,,0
11291,GLPV(NW),Glenn/Palo Verde,E GLENN ST & N SPARKMAN BLVD,32.257849,-110.918737,,,,,,0
11292,GLED(NW),Glenn/Edith,E GLENN ST & N FLANWILL BLVD,32.25779,-110.923304,,,,,,0
11293,GLCC(NW),Glenn/Country Club,E GLENN ST & N COUNTRY CLUB RD,32.257819,-110.927335,,,,,,0
11294,GLTR(NW),Glenn/Treat,E GLENN ST & N TREAT AVE,32.257733,-110.931349,,,,,,0
11295,GLTU(NW),Glenn/Tucson,E GLENN ST & N WILSON AVE,32.257679,-110.935542,,,,,,0
11296,GLPL(NW),Glenn/Plumer,E GLENN ST & N PLUMER AV,32.2577,-110.939807,,,,,,0
11298,GLCH(NW),Glenn/Cherry,E GLENN ST & N CHERRY AV,32.257648,-110.948588,,,,,,0
11300,GLPK(NE),Glenn/Park,E GLENN ST & N PARK AV,32.257677,-110.956407,,,,,,0
11301,PKCO(SW),Park/Copper,N PARK AVE & E COPPER ST,32.253744,-110.956886,,,,,,0
11302,PKGR(NW),Park/Grant,N PARK AVE & E GRANT RD,32.250086,-110.956955,,,,,,0
11303,PKWA(NW),Park/Waverly,N PARK AVE & E SENECA ST,32.245817,-110.956921,,,,,,0
11304,PKEL(SW),Park/Elm,N PARK AVE & E LEE ST,32.242183,-110.956888,,,,,,0
11305,PKDR(SW),Park/Drachman,N PARK AVE & E DRACHMAN ST,32.23938,-110.956888,,,,,,0
11321,AMOR(NW),Auto Mall Dr/Oracle,W AUTO MALL DR & N CIRCUIT RD,32.290148,-110.979145,,,,,,0
11324,WEAM(NW),Wetmore/Auto Mall Dr,W WETMORE RD & W AUTO MALL DR,32.286698,-110.987412,,,,,,0
11325,WELA(NW),Wetmore/Lake,W WETMORE RD & N LAKE DR,32.286835,-110.991788,,,,,,0
11326,WEFW(NW),Wetmore/Flowing Wells,W WETMORE RD & N FLOWING WELLS RD,32.286877,-110.995512,,,,,,0
11327,WEPO(NW),Wetmore/Pomona,W WETMORE RD & N POMONA AVE,32.286977,-110.999673,,,,,,0
11328,ORRU(SW),Oracle/Rudasill,N ORACLE RD & W ORANGE GROVE RD,32.314346,-110.977662,,,,,,0
11329,RIST(SE),River/Stone,E RIVER RD & N STONE AVE,32.296099,-110.970667,,,,,,0
11330,RICA(SE),River/Campana Dr,E RIVER RD & N LA CAMPANA,32.293807,-110.95907,,,,,,0
11331,RIVE(SE),River/Via Entrada,E RIVER RD & W ORANGE GROVE RD,32.290978,-110.949071,,,,,,0
11332,CARI(SW),Campbell Av/River,N CAMPBELL AVE & E RIVER RD,32.285978,-110.943934,,,,,,0
11333,CAAL(SW),Campbell Av/Allen,N CAMPBELL AVE & E ALLEN RD,32.275661,-110.943951,,,,,,0
11344,SPHI(NW),Speedway/Highland Underpass,E SPEEDWAY BLVD & N MOUNTAIN AVE,32.236092,-110.951134,,,,,,0
11347,RICA(NW),River/Campbell,E RIVER RD & N CAMPBELL AVE,32.287343,-110.944504,,,,,,0
11348,RIVE(NW),River/Via Entrada,E RIVER RD & N VIA ENTRADA,32.291749,-110.950632,,,,,,0
11349,RI1A(NW),River/1st Av,E RIVER RD & N 1ST AVE,32.295755,-110.961862,,,,,,0
11350,RIST(NW),River/Stone,W RIVER RD & E RIVER RD,32.296524,-110.9719,,,,,,0
11352,INNO(NW),Ina/Pso Del Norte,W INA RD & N PASEO DEL NORTE,32.337342,-110.98323,,,,,,0
11355,INLA(NW),Ina/La Canada,W INA RD & N LA CANADA DR,32.337324,-110.995639,,,,,,0
11357,INMA(NW),Ina/Magic Pl,W INA RD & N MAGIC LN,32.337329,-111.004874,,,,,,0
11358,INCA(NW),Ina/Casablanca,W INA RD & N CASABLANCA DR,32.337331,-111.009083,,,,,,0
11359,IN2300WB,Ina/2300 W Ina Road WB,,32.33741,-111.018246,,,,,,0
11362,INSH(NW),Ina/Shannon,W INA RD & N SHANNON RD,32.337535,-111.030203,,,,,,0
11364,INTI(NW),Ina/Cmo De La Tierra,W INA RD & N CMO DE LA TIERRA,32.337551,-111.038393,,,,,,0
11365,INME(NW),Ina/Meredith,W INA RD & N MEREDITH BLVD,32.337598,-111.04401,,,,,,0
11368,STSP(NE),Stone/Speedway,N STONE AVE & E SPEEDWAY BLVD,32.236188,-110.971696,,,,,,0
11372,FWRO(SW),Flowing Wells/Roger,N FLOWING WELLS RD & W ROGER RD,32.278774,-110.995129,,,,,,0
11373,FWPA(SW),Flowing Wells/Pastime,N FLOWING WELLS RD & W PASTIME RD,32.275411,-110.995169,,,,,,0
11375,FWPR(NE),Flowing Wells/Prince,N FLOWING WELLS RD & W PRINCE RD,32.272893,-110.994935,,,,,,0
11378,FWDE(NW),Flowing Wells/Delano,N FLOWING WELLS RD & W DELANO DR,32.26389,-110.995097,,,,,,0
11379,MMFW(SE),Miracle Mile/Flowing Wells,W MIRACLE MILE & N FLOWING WELLS RD,32.261086,-110.993509,,,,,,0
11380,MMEB(SE),Miracle Mile/El Burrito,W MIRACLE MILE & N EL BURRITO AVE,32.261031,-110.990864,,,,,,0
11381,MMFA(SE),Miracle Mile/Fairview,W MIRACLE MILE & N FAIRVIEW AVE,32.260895,-110.986243,,,,,,0
11382,MMRM(IF),Miracle Mile/Riviera Motel,W MIRACLE MILE & N 14TH AVE,32.260902,-110.981544,,,,,,0
11383,ORGL(SW),Oracle/Glenn,N ORACLE RD & W GLENN ST,32.257383,-110.978256,,,,,,0
11384,ORJA(SW),Oracle/Jacinto,N ORACLE RD & W JACINTO ST,32.253739,-110.978228,,,,,,0
11387,ORPL(SW),Oracle/Plata,N ORACLE RD & W LESTER ST,32.244261,-110.978142,,,,,,0
11388,ORLE(SW),Oracle/Lee,N ORACLE RD & W LEE ST,32.241411,-110.978128,,,,,,0
11389,MAMA(NW),Main/Mabel,N MAIN ST & N MAIN AVE,32.238561,-110.978112,,,,,,0
11407,MASP(NE),Main/Speedway,N MAIN AVE & W SPEEDWAY BLVD,32.236311,-110.9778,,,,,,0
11408,MAMA(NE),Main/Mabel,N MAIN ST & N MAIN AVE,32.238645,-110.977895,,,,,,0
11409,ORLE(SE),Oracle/Lee,N ORACLE RD & W LEE ST,32.241337,-110.977852,,,,,,0
11413,ORJA(NE),Oracle/Jacinto,N ORACLE RD & W JACINTO ST,32.254188,-110.977948,,,,,,0
11414,ORGL(NE),Oracle/Glenn,N ORACLE RD & W GLENN ST,32.257913,-110.978019,,,,,,0
11415,MMCE(NW),Miracle Mile/Cemetery,W MIRACLE MILE & N 14TH AVE,32.261103,-110.980108,,,,,,0
11417,MMFA(NW),Miracle Mile/Fairview,W MIRACLE MILE & N FAIRVIEW AVE,32.261126,-110.987144,,,,,,0
11418,MMEB(NW),Miracle Mile/El Burrito,W MIRACLE MILE & N EL BURRITO AVE,32.261235,-110.991207,,,,,,0
11419,MMFW(NE),Miracle Mile/Flowing Wells,W MIRACLE MILE & N FLOWING WELLS RD,32.261347,-110.994559,,,,,,0
11425,PRIR(SE),Prince/Iroquois,W PRINCE RD & N IROQUOIS AVE,32.272115,-110.998151,,,,,,0
11426,FWPR(SW),Flowing Wells/Prince,N FLOWING WELLS RD & W PRINCE RD,32.271587,-110.995157,,,,,,0
11427,FWPA(NE),Flowing Wells/Pastime,N FLOWING WELLS RD & W PASTIME RD,32.275946,-110.994857,,,,,,0
11430,RORO(NE),Romero/Roger,N ROMERO RD & W ROGER RD,32.279996,-111.003271,,,,,,0
11433,WEFW(SE),Wetmore/Flowing Wells,W WETMORE RD & N FLOWING WELLS RD,32.286817,-110.994574,,,,,,0
11434,WEEB(SE),Wetmore/El Burrito,W WETMORE RD & N EL BURRITO AVE,32.286778,-110.991287,,,,,,0
11435,AMWE(NE),Auto Mall Dr/Wetmore,W AUTO MALL DR & N FAIRVIEW AVE,32.287229,-110.986542,,,,,,0
11438,AMOR(SW),Auto Mall Dr/Oracle,W AUTO MALL DR & N CIRCUIT RD,32.289981,-110.979563,,,,,,0
11455,COGN(SW),Congress/Granada(SW),W CONGRESS ST & N GRANADA AVE,32.221092,-110.977093,,,,,,0
11464,COGN(NW),Congress/Granada(NW),W CONGRESS ST & N GRANADA AVE,32.221395,-110.976719,,,,,,0
11466,INTH(SE),Ina/Thornydale,W INA RD & N OLDFATHER DR,32.337443,-111.044855,,,,,,0
11467,INTI(SE),Ina/Cmo De La Tierra,W INA RD & N CMO DE LA TIERRA,32.33732,-111.037456,,,,,,0
11469,INSH(SE),Ina/Shannon,W INA RD & N SHANNON RD,32.337263,-111.028902,,,,,,0
11471,INML(SW),Ina/Mona Lisa,W INA RD & N MONA LISA RD,32.337205,-111.021342,,,,,,0
11486,IN3201EB,Ina/3201 W Ina Road EB,W INA RD & N SHANNON RD,32.337307,-111.034679,,,,,,0
11494,INLA(SE),Ina/La Canada,W INA RD & N LA CANADA DR,32.337092,-110.994627,,,,,,0
11497,INVP(SW),Ina/Via Ponte,W INA RD & N VIA PONTE,32.337126,-110.979762,,,,,,0
11499,STGL(NE),Stone/Glenn,N STONE AVE & E GLENN ST,32.257926,-110.971896,,,,,,0
11500,STRO(SE),Stone/Roger,N STONE AVE & W PASTIME RD,32.278548,-110.972071,,,,,,0
11518,SWGL(SW),Swan/Glenn,N SWAN RD & E GLENN ST,32.257417,-110.892703,,,,,,0
11525,TO7A(SE),Toole/7th Av,N TOOLE AVE & N 7TH AVE,32.225715,-110.970688,,,,,,0
11526,COCH(NW),Congress/Church,W CONGRESS ST & N 6TH AVE,32.221787,-110.973142,,,,,,0
11549,STWE(SW),Stone/Wetmore,N STONE AVE & E GREENLEE RD,32.286126,-110.969884,,,,,,0
11550,STRO(SW),Stone/Roger,N STONE AVE & W ROGER RD,32.278794,-110.972332,,,,,,0
11561,AJ6A(NW),Ajo/6th Av,W AJO WAY & S 6TH AVE,32.177899,-110.968631,,,,,,0
11610,AVSP(SW),Alvernon/Speedway,N ALVERNON WY & E SPEEDWAY BL,32.235714,-110.909823,,,,,,0
11689,6AAJ(SW),6th Av/Ajo,S 6TH AVE & W AJO WAY,32.177573,-110.968369,,,,,,0
11712,SPRV(NW),Speedway/Riverview,W SPEEDWAY BLVD & N CUESTA AVE,32.235809,-110.994354,,,,,,0
11714,SPSE(NW),Speedway/Seminole,W SPEEDWAY BLVD & N SEMINOLE AVE,32.235757,-110.999861,,,,,,0
11715,SPER(NW),Speedway/El Rio,W SPEEDWAY BLVD & N EL RIO DR,32.235743,-111.001739,,,,,,0
11716,SISP(SW),Silverbell/Speedway,N SILVERBELL RD & W SPEEDWAY BLVD,32.234646,-111.003785,,,,,,0
11717,SIME(SW),Silverbell/C Mecedora,N SILVERBELL RD & W CALLE MECEDORA,32.232594,-111.002488,,,,,,0
11718,SISJ(SE),Silverbell/San Jose,N SILVERBELL RD & SAN JOSE,32.230814,-111.00083,,,,,,0
11719,SITT(NW),Silverbell/Tucson Terrace,N SILVERBELL RD & W SILVERBELL TREE DR,32.225295,-110.997392,,,,,,0
11720,FRSI(SE),Fresno/Silverbell,W FRESNO ST & N SILVERBELL RD,32.224334,-110.995182,,,,,,0
11722,WEFR(SW),Westmoreland/Fresno,N WESTMORELAND AV & W FRESNO ST,32.223801,-110.992889,,,,,,0
11723,WEAL(NW),Westmoreland/Alameda,N WESTMORELAND AVE,32.222029,-110.992677,,,,,,0
11724,WEPE(SW),Westmoreland/Pennington,N WESTMORELAND AV & W PENNINGTON ST,32.220628,-110.992513,,,,,,0
11725,COWE(SE),Congress/Westmoreland,W CONGRESS ST & S WESTMORELAND AV,32.219666,-110.991764,,,,,,0
11727,COCO(SE),Congress/Av del Convento,W CONGRESS ST & N LINDA AVE,32.220323,-110.984356,,,,,,0
11735,6SEU(SE),6th St/Euclid,E 6TH ST & N EUCLID AVE,32.227689,-110.958997,,,,,,0
11736,6SPA(NW),6th St/Park Av,E 6TH ST & N PARK AV,32.227868,-110.956818,,,,,,0
11738,6SHI(SE),6th St/Highland,E 6TH ST & N HIGHLAND AVE,32.227678,-110.950125,,,,,,0
11739,6SCH(SE),6th St/Cherry,E 6TH ST & N CHERRY AVE,32.227716,-110.947772,,,,,,0
11740,6SPL(SE),6th St/Plumer,E 6TH ST & N PLUMER AVE,32.227843,-110.93915,,,,,,0
11741,6STU(SW),6th St/Tucson,E 6TH ST & N TUCSON BLVD,32.227838,-110.935886,,,,,,0
11742,6STR(SE),6th St/Treat,E 6TH ST & N TREAT AVE,32.227851,-110.930827,,,,,,0
11743,CC8S(SW),Country Club/8th St,N COUNTRY CLUB RD & E 8TH ST,32.22509,-110.926808,,,,,,0
11747,CCAC(NW),Country Club/Arroyo Chico,S COUNTRY CLUB & E ARROYO CHICO,32.216434,-110.926746,,,,,,0
11749,CCEA(SW),Country Club/Eastland,S COUNTRY CLUB RD & E 19TH ST,32.2112,-110.926768,,,,,,0
11751,22CC(SE),22nd St/Country Club,22ND ST & COUNTRY CLUB,32.206839,-110.92618,,,,,,0
11752,22RA(SE),22nd St/Randolph Pkwy,E 22ND ST & S JONES BLVD,32.206852,-110.922012,,,,,,0
11754,22PV(SW),22nd St/Palo Verde,E 22ND ST & S PALO VERDE AVE,32.206884,-110.917808,,,,,,0
11758,29BL*SW*,29th St/Belvedere(SW),E 29TH ST & S BELVEDERE,32.199677,-110.897122,,,,,,0
11759,29VE(SE),29th St/Venice,E 29TH ST & S SWAN RD,32.199638,-110.894351,,,,,,0
11760,29SW(SE),29th St/Swan,E 29TH ST & S SWAN RD,32.199637,-110.891316,,,,,,0
11761,2948(EB),29th St/4880 E 29th St,29TH ST,32.199622,-110.888431,,,,,,0
11762,29RO(SE),29th St/Rosemont,E 29TH ST & S ROSEMONT AVE,32.199551,-110.882881,,,,,,0
11763,29FA(SE),29th St/Farwell,E 29TH ST & S FARWELL AV,32.199584,-110.880662,,,,,,0
11765,29VB(SE),29th St/Van Buren,E 29TH ST & S SAHUARA AVE,32.199673,-110.870653,,,,,,0
11766,29SA(SW),29th St/Sahuara,E 29TH ST & S SAHUARA AVE,32.199599,-110.866826,,,,,,0
11767,29ZU(SE),29th St/Zuni,E 29TH ST & S ZUNI AVE,32.19963,-110.861397,,,,,,0
11768,WI29(SW),Wilmot/29th St,S WILMOT RD & E 29TH ST,32.198771,-110.858164,,,,,,0
11770,WI33(NW),Wilmot/33rd St,S WILMOT RD & E 33RD ST,32.195814,-110.858048,,,,,,0
11771,GLWI(SE),Golf Links/Wilmot,E GOLF LINKS RD & S WILMOT RD,32.191942,-110.857408,,,,,,0
11772,GLPO(SE),Golf Links/C Polar,E GOLF LINKS RD & S CALLE POLAR,32.191813,-110.852988,,,,,,0
11774,GLMN(SE),Golf Links/Mann,E GOLF LINKS RD & S MANN AVE,32.19182,-110.849073,,,,,,0
11775,GLLN(SE),Golf Links/Langley,E GOLF LINKS RD & S LANGLEY AVE,32.191821,-110.844736,,,,,,0
11776,GLKO(IN),Golf Links/Park & Ride (inside),E GLK PARK N RIDE LOOP,32.191518,-110.838658,,,,,,0
11777,GLCO(SE),Golf Links/Cordova,E GOLF LINKS RD & S C CORDOVA,32.191809,-110.835863,,,,,,0
11778,GLPR(SE),Golf Links/Prudence,E GOLF LINKS RD & S PRUDENCE RD,32.191805,-110.832109,,,,,,0
11779,GLMC(SE),Golf Links/Marc Dr,E GOLF LINKS RD & S MARC DR,32.191795,-110.828573,,,,,,0
11780,GLPA(SE),Golf Links/Pantano Rd,E GOLF LINKS RD & S PANTANO RD,32.19182,-110.823296,,,,,,0
11781,GLLA(SE),Golf Links/Lakeside Pkwy,E GOLF LINKS RD & E LAKESIDE PKWY,32.191818,-110.819203,,,,,,0
11782,GLSB(SE),Golf Links/Saddleback,E GOLF LINKS RD & S SADDLEBACK RD,32.191745,-110.816845,,,,,,0
11783,GLSA(SE),Golf Links/Sarnoff,E GOLF LINKS RD & S SARNOFF DR,32.191737,-110.814224,,,,,,0
11785,GLPP(SE),Golf Links/Pantano Pkwy,E GOLF LINKS RD & E LAKESIDE PKWY,32.191644,-110.808068,,,,,,0
11786,GLOA(SE),Golf Links/Oakenshield,E GOLF LINKS RD & S OAKENSHIELD WAY,32.191648,-110.803099,,,,,,0
11803,GLPS(NW),Golf Links/Palm Springs,E GOLF LINKS RD & S PALM SPRINGS DR,32.191925,-110.79915,,,,,,0
11804,GLCS(NW),Golf Links/Cmo Seco,E GOLF LINKS RD & S CMO SECO,32.191899,-110.804085,,,,,,0
11805,GLPP(NW),Golf Links/Pantano Pkwy,E GOLF LINKS RD & S PANTANO PW,32.191988,-110.809424,,,,,,0
11808,GLSB(NW),Golf Links/Saddleback,E GOLF LINKS RD & S SADDLEBACK RD,32.19205,-110.817751,,,,,,0
11809,GLLA(NW),Golf Links/Lakeside Pkwy,E GOLF LINKS RD & E LAKESIDE PKWY,32.192056,-110.82014,,,,,,0
11810,GLPA(NW),Golf Links/Pantano Rd,E GOLF LINKS RD & S PANTANO RD,32.192004,-110.824273,,,,,,0
11811,GLMC(NW),Golf Links/Marc Dr,E GOLF LINKS RD & S MARC DR,32.192032,-110.829122,,,,,,0
11812,GLPR(NW),Golf Links/Prudence,E GOLF LINKS RD & S PRUDENCE RD,32.192036,-110.832653,,,,,,0
11813,GLCO(NW),Golf Links/Cordova,E GOLF LINKS RD & S CALLE CORDOVA,32.1921,-110.836941,,,,,,0
11814,GLKO(NW),Golf Links/Kolb,E GOLF LINKS RD & S KOLB RD,32.192065,-110.841498,,,,,,0
11815,GLGL(NW),Golf Links/Golf Links Cir,E GOLF LINKS RD & E GOLF LINKS CIR,32.19203,-110.84473,,,,,,0
11816,GLRE(NE),Golf Links/Av Regulo,E GOLF LINKS RD & S AVE REGULO,32.192067,-110.849463,,,,,,0
11817,GLPO(NW),Golf Links/C Polar,E GOLF LINKS RD & S C POLAR,32.192136,-110.855042,,,,,,0
11820,29WI(NW),29th St/Wilmot,E 29TH ST & S WILMOT RD,32.199785,-110.858682,,,,,,0
11821,29AL(NW),29th St/Alamo,E 29TH ST & S SONOITA AVE,32.199785,-110.862211,,,,,,0
11822,29SA(NE),29th St/Sahuara,E 29TH ST & S SAHUARA AVE,32.199732,-110.866028,,,,,,0
11823,29VB(NW),29th St/Van Buren,E 29TH ST & S VAN BUREN AVE,32.199723,-110.871366,,,,,,0
11824,29BE(NW),29th St/Beverly,E 29TH ST & S BEVERLY AVE,32.199788,-110.879745,,,,,,0
11825,29RO(NW),29th St/Rosemont,E 29TH ST & S ROSEMONT AVE,32.199804,-110.884232,,,,,,0
11826,2949(WB),29th St/4929 E 29th St,29ST ST,32.199834,-110.887758,,,,,,0
11827,29SW(NW),29th St/Swan,E 29TH ST & S SWAN RD,32.199871,-110.893124,,,,,,0
11828,29BL(NW),29th St/Belvedere(NW),E 29TH ST & S BELVEDERE AVE,32.199887,-110.896205,,,,,,0
11829,29CO(NE),29th St/Columbus,E 29TH ST & S COLUMBUS BLVD,32.199898,-110.900562,,,,,,0
11843,CC8S(NE),Country Club/8th St,N COUNTRY CLUB RD & E 8TH ST,32.225417,-110.92662,,,,,,0
11844,6SCC(NW),6th St/Country Club,E 6TH ST & N COUNTRY CLUB RD,32.22844,-110.927181,,,,,,0
11845,6STR(NW),6th St/Treat,E 6TH ST & N TREAT AVE,32.22802,-110.931331,,,,,,0
11846,6STU(NW),6th St/Tucson,E 6TH ST & N TUCSON BLVD,32.227989,-110.936045,,,,,,0
11847,6SPL(NW),6th St/Plumer,E 6TH ST & N PLUMER AVE,32.227936,-110.939791,,,,,,0
11848,6SCH(NE),6th St/Cherry,E 6TH ST & N CHERRY AVE,32.227947,-110.947836,,,,,,0
11852,6S3A(NE),6th St/3rd Av,E 6TH ST & N 3RD AVE,32.227839,-110.963875,,,,,,0
11865,KI14(NE),Kino Pw/14th St,S KINO PKWY & E 14TH ST,32.217824,-110.9441,,,,,,0
11866,22PP(NW),22nd St/Pantano Pkwy,E 22ND ST & S PANTANO RD,32.206548,-110.824181,,,,,,0
11867,22PR(NW),22nd St/Prudence,E 22ND ST & S PRUDENCE RD,32.206628,-110.833241,,,,,,0
11868,22KO(NW),22nd St/Kolb,E 22ND ST & KOLB,32.20664,-110.841678,,,,,,0
11872,STPD(NW),Stella/Prudence,E STELLA RD & S PRUDENCE RD,32.184732,-110.832759,,,,,,0
11878,STPD(SW),Stella/Prudence,E STELLA RD & S PRUDENCE RD,32.184659,-110.8326,,,,,,0
11879,CA8S(NE),Campbell Av/8th St,N CAMPBELL AVE & E 8TH ST,32.22543,-110.943786,,,,,,0
11880,CA6S(NE),Campbell Av/6th St,N CAMPBELL AVE & E 6TH ST,32.228176,-110.943796,,,,,,0
11881,CASP(NE),Campbell Av/Speedway,N CAMPBELL AVE & E SPEEDWAY BLVD,32.236736,-110.943855,,,,,,0
11882,CAAD(NE),Campbell Av/Adams,N CAMPBELL AVE & E SPEEDWAY BLVD,32.240927,-110.943901,,,,,,0
11883,CALE(NE),Campbell Av/Lester,N CAMPBELL AVE & E 8TH ST,32.243951,-110.943983,,,,,,0
11884,CASE(SE),Campbell Av/Seneca,N CAMPBELL AVE & E SENECA ST,32.246906,-110.943945,,,,,,0
11886,CACO(NE),Campbell Av/Copper,N CAMPBELL AVE & E COPPER ST,32.254255,-110.943838,,,,,,0
11887,CAGL(NE),Campbell Av/Glenn,N CAMPBELL AV & E GLENN ST,32.258567,-110.943702,,,,,,0
11888,CABL(NE),Campbell Av/Blacklidge,N CAMPBELL AV & E BLACKLIDGE DR,32.261483,-110.943688,,,,,,0
11890,CAKL(NE),Campbell Av/Kleindale,N CAMPBELL AVE & N RICHLAND DR,32.268917,-110.943698,,,,,,0
11891,CAAL(NE),Campbell Av/Allen,N CAMPBELL AVE & E ALLEN RD,32.276224,-110.9437,,,,,,0
11892,ROCA(NW),Roger/Campbell,E ROGER RD & N CAMPBELL AVE,32.279575,-110.944371,,,,,,0
11893,ROFM(NW),Roger/Foothills MHP,,32.279519,-110.947662,,,,,,0
11894,ROMO(NW),Roger/Mountain,E ROGER RD & N MOUNTAIN AVE,32.2795,-110.952941,,,,,,0
11895,RO1A(NE),Roger/1st Av(NE),E ROGER RD & N 1ST AVE,32.279421,-110.959633,,,,,,0
11898,RO4A(NW),Roger/4th Av,E ROGER RD & N 4TH AVE,32.279268,-110.965544,,,,,,0
11900,ROST(SE),Roger/Stone,E ROGER RD & N STONE AVE,32.279149,-110.971532,,,,,,0
11904,STLI(SW),Stone/Limberlost,N STONE AVE & E NAVAJO RD,32.282482,-110.969705,,,,,,0
11905,ROST(NE),Roger/Stone,E ROGER RD & N STONE AVE,32.279203,-110.971532,,,,,,0
11907,RO4A(SW),Roger/4th Av,E ROGER RD & N FONTANA AVE,32.279231,-110.965716,,,,,,0
11908,RO1A(SE),Roger/1st Av,E ROGER RD & N 1ST AVE,32.279263,-110.96004,,,,,,0
11909,ROPA(SE),Roger/Park,E ROGER RD & N FREMONT AVE,32.279306,-110.95654,,,,,,0
11910,ROMO(SE),Roger/Mountain,E ROGER RD & N MOUNTAIN AVE,32.279338,-110.951737,,,,,,0
11911,ROFM(IF),Roger/Foothills MHP,,32.279431,-110.947654,,,,,,0
11912,CARO(SW),Campbell Av/Roger,N CAMPBELL AVE & E ROGER RD,32.27898,-110.94395,,,,,,0
11914,CAKL(SW),Campbell Av/Kleindale,N CAMPBELL AVE & E KLEINDALE RD,32.268359,-110.943862,,,,,,0
11915,CAFL(SW),Campbell Av/Ft Lowell,N CAMPBELL AV & E FORT LOWELL RD,32.264705,-110.943853,,,,,,0
11916,CABL(SW),Campbell Av/Blacklidge,N CAMPBELL AV & E BLACKLIDGE DR,32.260973,-110.943876,,,,,,0
11918,CAGL(SW),Campbell Av/Glenn,N CAMPBELL AVE & E GLENN ST,32.257278,-110.944007,,,,,,0
11919,CACO(SW),Campbell Av/Copper,N CAMPBELL AVE & E COPPER ST,32.253868,-110.944022,,,,,,0
11921,CAWA(NW),Campbell Av/Waverly,N CAMPBELL AVE & E WAVERLY ST,32.245871,-110.944221,,,,,,0
11924,CASP(SW),Campbell Av/Speedway,N CAMPBELL AVE & E SPEEDWAY BLVD,32.235706,-110.944114,,,,,,0
11925,CA6S(SW),Campbell Av/6th St,N CAMPBELL AVE & E 7TH ST,32.2275,-110.944016,,,,,,0
11926,CA9S(NW),Campbell Av/9th St,N CAMPBELL AVE & E 7TH ST,32.224396,-110.944004,,,,,,0
11932,22TU(SE),22nd St/Tucson,E 22ND ST & S TUCSON BLVD,32.206762,-110.934777,,,,,,0
11935,12TE(SW),12th Av/Teton,S 12TH AVE & W CABOT DR,32.124655,-110.977771,,,,,,0
11936,12IN(SW),12th Av/Inez,S 12TH AVE & W ACADIA DR,32.121379,-110.977766,,,,,,0
11946,LCRU(NE),La Cholla/Ruthrauff,N LA CHOLLA BLVD & W NOREEN ST,32.295108,-111.011873,,,,,,0
11947,LCSU(NE),La Cholla/Sunset,N LA CHOLLA BLVD & W SUNSET RD,32.309149,-111.011911,,,,,,0
11948,LCOG(NE),La Cholla/Orange Grove,N LA CHOLLA BLVD & W ORANGE GROVE RD,32.32383,-111.011972,,,,,,0
11951,INSW(NW),Ina/Shama Wing,W INA RD & N PERUGIA WAY,32.337429,-111.024995,,,,,,0
11959,INSW(SE),Ina/Shama Wing,,32.337235,-111.025405,,,,,,0
11962,LCOG(SW),La Cholla/Orange Grove,N LA CHOLLA BLVD & W ORANGE GROVE RD,32.322613,-111.012413,,,,,,0
11963,LCSU(SW),La Cholla/Sunset,N LA CHOLLA BLVD & W SUNSET RD,32.307938,-111.012287,,,,,,0
11964,RULC(NW),Ruthrauff/La Cholla,W RUTHRAUFF RD & N C HARMONIA,32.294533,-111.01257,,,,,,0
11970,GRCH(NW),Grant/Cherry,E GRANT RD & N CHERRY AV,32.249986,-110.948518,,,,,,0
11971,GRMO(NW),Grant/Mountain,E GRANT RD & N SANTA RITA AVE,32.249955,-110.952808,,,,,,0
11972,GRPA(NW),Grant/Park,E GRANT RD & N PARK AVE,32.249934,-110.957137,,,,,,0
11973,GR1A(NW),Grant/1st Av,E GRANT RD & N 1ST AVE,32.250497,-110.962081,,,,,,0
11975,GRFO(NW),Grant/Fontana,E GRANT RD & N FONTANA AVE,32.25042,-110.968105,,,,,,0
11976,IR13(NW),Irvington/13th Av,W IRVINGTON RD & S 13TH AVE,32.163352,-110.97929,,,,,,0
11977,IR15(NW),Irvington/15th Av,W IRVINGTON RD & S 15TH AVE,32.163288,-110.980864,,,,,,0
11993,MIIV(NE),Mission/Irvington Rd,S MISSION RD & N SENDERO UNO,32.160066,-111.00687,,,,,,0
11994,MIIR*NE*,Mission/Irvington Pl,S MISSION RD & W IRVINGTON PL,32.163726,-111.00635,,,,,,0
11995,MIVI(NE),Mission/Via Ingresso,S MISSION RD,32.170086,-111.00449,,,,,,0
11996,MIVE(NE),Mission/Veterans,S MISSION RD & W VETERANS PL,32.181698,-111.00311,,,,,,0
11997,MILP(NE),Mission/C La Paz,S MISSION RD & C LA PAZ,32.184393,-111.002895,,,,,,0
11999,MI28(NB),Mission/2800 Block,S MISSION RD & W 36TH ST,32.189424,-110.999399,,,,,,0
12000,36MI(NW),36th St/Mission,W 36TH ST & S MISSION RD,32.192368,-110.999847,,,,,,0
12001,36LE(NW),36th St/Lands End,W 36TH ST & S LANDS END RD,32.192376,-111.003834,,,,,,0
12002,36EH(NE),36th St/Enchanted Hills,W 36TH ST & S ENCHANTED HILLS DR,32.192379,-111.007117,,,,,,0
12004,LCSJ(SE),La Cholla/San Juan,S LA CHOLLA BLVD & W SAN JUAN TRL,32.199129,-111.011607,,,,,,0
12005,LCAM(SE),La Cholla/A Mountain Ctr,S LA CHOLLA BLVD,32.201593,-111.011637,,,,,,0
12006,SMSN(SE),San Marcos/Cmo Santiago,W SAN MARCOS BLVD & S CMO SANTIAGO,32.203057,-111.007344,,,,,,0
12010,SMMI(SW),San Marcos/Mission,W SAN MARCOS BLVD & S MISSION RD,32.202913,-110.995979,,,,,,0
12011,SISE(SE),Silverlake/Silverlake Estates,W SILVERLAKE RD & UNNAMED,32.199405,-110.993436,,,,,,0
12012,SICW(SE),Silverlake/Cottonwood,W SILVERLAKE RD & S COTTONWOOD LN,32.199427,-110.99007,,,,,,0
12013,SISC(SE),Silverlake/Santa Cruz,W SILVERLAKE RD & S SANTA CRUZ LN,32.199455,-110.986051,,,,,,0
12014,SI10(SW),Silverlake/I-10 Interstate,W SILVERLAKE RD & W HURON ST,32.199449,-110.980115,,,,,,0
12015,2911(SW),29th St/11th Av,W 29TH ST & S 11TH AVE,32.199427,-110.976556,,,,,,0
12016,2910(SE),29th St/10th Av,W 29TH ST & S 10TH AVE,32.199485,-110.97428,,,,,,0
12018,4A28(SE),4th Av/28th St,S 4TH AV & E 28TH ST,32.200256,-110.965372,,,,,,0
12019,4A26(NE),4th Av/26th St,S 4TH AVE & E 26TH ST,32.20337,-110.965326,,,,,,0
12021,4A22(NE),4th Av/22nd St,S 4TH AVE & E 22ND ST,32.207278,-110.965335,,,,,,0
12022,4A20(NE),4th Av/20th St,S 4TH AVE & E 20TH ST,32.209728,-110.965365,,,,,,0
12023,4A17(NE),4th Av/17th St,S 4TH AVE & E 17TH ST,32.213795,-110.965405,,,,,,0
12024,4A15(NE),4th Av/15th St,S 4TH AVE & E 15TH ST,32.216578,-110.965424,,,,,,0
12025,124A(NW),12th St/4th Av,E 12TH ST & S HERBERT AVE,32.21997,-110.965838,,,,,,0
12043,LRMI(NW),Los Reales/Missiondale,W LOS REALES RD & S MISSIONDALE RD,32.119529,-110.96929,,,,,,0
12045,LRSF(NE),Los Reales/San Fernando,W LOS REALES RD & S SAN FERNANDO RD,32.119556,-110.973132,,,,,,0
12046,12LR(NE),12th Av/Los Reales,S 12TH AVE & W LOS REALES RD,32.119932,-110.977463,,,,,,0
12050,12ME(NE),12th Av/Medina,S 12TH AVE & W CALLE MEDINA,32.130657,-110.977628,,,,,,0
12051,VASF(SE),Valencia/San Fernando,W VALENCIA RD & S SAN FERNANDO RD,32.13394,-110.973021,,,,,,0
12062,6ANE(SW),6th Av/Nebraska,S 6TH AVE & E NEBRASKA ST,32.155599,-110.96814,,,,,,0
12067,PKDX(SW),Park/Drexel,S PARK AVE & E DREXEL RD,32.148338,-110.956246,,,,,,0
12079,1023(SW),10th Av/23rd St,S 10TH AVE & W 23RD ST,32.205241,-110.974721,,,,,,0
12084,1AGR(NE),1st Av/Grant,N 1ST AVE & E ALTURAS ST,32.250746,-110.960875,,,,,,0
12086,PRST(NW),Prince/Stone,W PRINCE RD & N STONE AVE,32.272107,-110.972576,,,,,,0
12087,PRFW(NW),Prince/Flowing Wells(NW),W PRINCE RD & N FLOWING WELLS RD,32.272264,-110.995691,,,,,,0
12094,PRFW(SE),Prince/Flowing Wells,W PRINCE RD & N FLOWING WELLS RD,32.27205,-110.994471,,,,,,0
12095,STPR(NE),Stone/Prince,N STONE AVE & E KING RD,32.27248,-110.972016,,,,,,0
12096,PRST(SW),Prince/Stone,W PRINCE RD & N STONE AVE,32.271848,-110.972414,,,,,,0
12098,1AGR(NW),1st Av/Grant,N 1ST AVE & E GRANT RD,32.251594,-110.961094,,,,,,0
12102,12VA(NE),12th Av/Valencia,S 12TH AVE & W VALENCIA RD,32.135135,-110.977673,,,,,,0
12104,12SM(NE),12th Av/Santa Maria,S 12TH AVE & W SANTA MARIA ST,32.137913,-110.977532,,,,,,0
12106,12BI(NE),12th Av/Bilby,S 12TH AVE & W BILBY RD,32.141601,-110.977485,,,,,,0
12107,12AL(NE),12th Av/C Alvord,S 12TH AVE & W C RAMONA,32.14529,-110.97747,,,,,,0
12108,12DR(NE),12th Av/Drexel,S 12TH AVE & W DREXEL RD,32.14896,-110.977476,,,,,,0
12109,12CA(SE),12th Av/Canada St,S 12TH AVE & W CANADA ST,32.151436,-110.97747,,,,,,0
12111,LIUT(SW),Liberty/Utah,S LIBERTY AVE & W UTAH ST,32.157678,-110.973286,,,,,,0
12114,12NE(NE),12th Av/Nebraska,S 12TH AVE & W NEBRASKA ST,32.156516,-110.977379,,,,,,0
12115,12WY(NE),12th Av/Wyoming,S 12TH AVE & W WYOMING ST,32.159945,-110.977428,,,,,,0
12116,12IR(NE),12th Av/Irvington,S 12TH AVE & W IRVINGTON RD,32.163588,-110.977422,,,,,,0
12117,12OH(SE),12th Av/Ohio,S 12TH AVE & W OHIO ST,32.167402,-110.977443,,,,,,0
12118,12PE(NE),12th Av/Pennsylvania,S 12TH AVE & W PENNSYLVANIA DR,32.171686,-110.977409,,,,,,0
12120,12PA(NE),12th Av/Palmdale,S 12TH AV & W PALMDALE ST,32.175293,-110.977426,,,,,,0
12123,12VE(NE),12th Av/Veterans,S 12TH AV & W VETERANS BL,32.181637,-110.977439,,,,,,0
12124,1044(NE),10th Av/44th St,S 10TH AV & W 43RD ST,32.185534,-110.975572,,,,,,0
12125,1041(NE),10th Av/41st St,S 10TH AV & W 41ST ST,32.187965,-110.974382,,,,,,0
12127,1036(NE),10th Av/36th St,S 10TH AVE & W 36TH ST,32.192803,-110.974474,,,,,,0
12128,1032(SE),10th Av/32nd St,S 10TH AV & W 32ND ST,32.196346,-110.974425,,,,,,0
12129,1026(NE),10th Av/26th St,S 10TH AVE & W 26TH ST,32.20276,-110.97456,,,,,,0
12130,1023(NE),10th Av/23rd St,S 10TH AVE & W 23RD ST,32.205784,-110.974584,,,,,,0
12132,1019(NE),10th Av/19th St,S 10TH AVE & W 19TH ST,32.211012,-110.974632,,,,,,0
12133,MA17(NE),Main/17th St,S MAIN AVE & W 17TH ST,32.213689,-110.9742,,,,,,0
12140,STUN(NE),Stone/University,N STONE AVE & E 2ND ST,32.231838,-110.9717,,,,,,0
12142,DRST(NW),Drachman/Stone,W DRACHMAN ST & N STONE AVE,32.239528,-110.972204,,,,,,0
12143,DR11(NE),Drachman/11th Av,W DRACHMAN ST & N 11TH AVE,32.239513,-110.976268,,,,,,0
12150,ORBL(NE),Oracle/Blacklidge,N ORACLE RD & W BLACKLIDGE DR,32.261514,-110.977954,,,,,,0
12151,ORFL(NE),Oracle/Ft Lowell,N ORACLE RD & W FORT LOWELL RD,32.265252,-110.977967,,,,,,0
12152,ORYA(NE),Oracle/Yavapai,N ORACLE RD & W YAVAPAI RD,32.270091,-110.977979,,,,,,0
12153,ORPR(NE),Oracle/Prince,N ORACLE RD & W PRINCE RD,32.272257,-110.977959,,,,,,0
12154,ORPA(NE),Oracle/Pastime,N ORACLE RD & W PASTIME RD,32.275688,-110.978042,,,,,,0
12155,ORRO(NE),Oracle/Roger,N ORACLE RD & W ROGER RD,32.279394,-110.978026,,,,,,0
12156,ORLI(NE),Oracle/Limberlost,N ORACLE RD & W LIMBERLOST DR,32.283436,-110.977967,,,,,,0
12157,WEOR(SE),Wetmore/Oracle,W WETMORE RD & N ORACLE RD,32.286316,-110.97758,,,,,,0
12159,ORRV(NE),Oracle/River,N ORACLE RD & W RIVER RD,32.297776,-110.978144,,,,,,0
12164,ORLL*NE*,Oracle/Las Lomitas,N ORACLE RD & N 15TH AVE,32.312617,-110.977963,,,,,,0
12169,ORCA*NE*,Oracle/Casas Adobes Rd,N ORACLE RD & E FORT LOWELL RD,32.330583,-110.976506,,,,,,0
12171,GLCL(SE),Glenn/Cloverland,E GLENN ST & N BEVERLY AVE,32.257904,-110.880185,,,,,,0
12175,INLO(NW),Ina/La Oesta,W INA RD & N LA OESTA AVE,32.337295,-110.987566,,,,,,0
12178,INEC(NW),Ina/Express Care,,32.337335,-111.000671,,,,,,0
12183,INCC(NW),Ina/Crystal Cave,W INA RD & CRYSTAL CAVE,32.337424,-111.022462,,,,,,0
12191,ORSU(NE),Oracle/Suffolk Dr,N ORACLE RD & W SUFFOLK DR,32.345566,-110.97602,,,,,,0
12193,ORMV(NE),Oracle/Mountain Vista,N ORACLE RD & W MOUNTAIN VISTA DR,32.355743,-110.973728,,,,,,0
12194,ORHD(NE),Oracle/Hardy Rd,N ORACLE RD & E HARDY RD,32.366882,-110.969163,,,,,,0
12195,ORCO(NE),Oracle/C Concordia,N ORACLE RD & E CALLE CONCORDIA,32.374153,-110.966086,,,,,,0
12196,ORLV(NE),Oracle/Linda Vista,N ORACLE RD & E CALLE CONCORDIA,32.381498,-110.963801,,,,,,0
12197,OREC(NE),Oracle/El Conquistador Wy,N ORACLE RD & E EL CONQUISTADOR WAY,32.388733,-110.964118,,,,,,0
12198,OR1A(NE),Oracle/1st Av (OroValley),N ORACLE RD & N 1ST AVE,32.400321,-110.954765,,,,,,0
12209,INLC(SE),Ina/La Cholla(SE),W INA RD & N LA CHOLLA BLVD,32.337171,-111.012261,,,,,,0
12210,INCA(SE),Ina/Casablanca,W INA RD & N CASABLANCA DR,32.337165,-111.008508,,,,,,0
12211,INMA(SE),Ina/Magic Ln,W INA RD & N MAGIC PL,32.337168,-111.005015,,,,,,0
12212,INEC(SE),Ina/Express Care,W INA RD & N 1ST AVE,32.337107,-110.999869,,,,,,0
12214,INPA(SE),Ina/Pampa Pl,W INA RD & N PAMPA PL,32.337054,-110.987696,,,,,,0
12217,ORHA(SW),Oracle/Hanley Blvd,N ORACLE RD & E HANLEY BLVD,32.404331,-110.950223,,,,,,0
12218,OR1A(SW),Oracle/1st Av (OroValley),N ORACLE RD & N 1ST AVE,32.399881,-110.955821,,,,,,0
12219,OREC(SW),Oracle/El Conquistador Wy,N ORACLE RD & E EL CONQUISTADOR WAY,32.387629,-110.964591,,,,,,0
12220,ORLV(SW),Oracle/Linda Vista,N ORACLE RD & E LINDA VISTA BLVD,32.380361,-110.964289,,,,,,0
12221,ORCO(SW),Oracle/C Concordia,N ORACLE RD & E CALLE CONCORDIA,32.37274,-110.967063,,,,,,0
12222,OR88(MB),Oracle/8851 N Oracle,,32.368618,-110.968821,,,,,,0
12223,ORMV(SW),Oracle/Mountain Vista,N ORACLE RD & W MOUNTAIN VISTA DR,32.355226,-110.974299,,,,,,0
12224,ORMA(SW),Oracle/Magee,N ORACLE RD,32.351127,-110.975202,,,,,,0
12225,ORSU(SW),Oracle/Suffolk Dr,N ORACLE RD & W SUFFOLK DR,32.344779,-110.976556,,,,,,0
12227,ORCA(SB),Oracle/Casas Adobes Rd,N ORACLE RD & N CASAS ADOBES RD,32.328396,-110.976327,,,,,,0
12230,ORLY(SW),Oracle/Lavery Ln,N ORACLE RD & W LAVERY LN,32.318655,-110.975361,,,,,,0
12232,ORLL(SW),Oracle/Las Lomitas,N ORACLE RD & W LAS LOMITAS RD,32.311522,-110.978581,,,,,,0
12234,ORCL(SW),Oracle/Cresta Loma,N ORACLE RD & W CRESTA LOMA DR,32.303962,-110.978759,,,,,,0
12236,RIOR(SE),River/Oracle,W RIVER RD & N ORACLE RD,32.297175,-110.977204,,,,,,0
12239,ORWE(SW),Oracle/Wetmore,N ORACLE RD & W WETMORE RD,32.286196,-110.978288,,,,,,0
12240,ORLI(SW),Oracle/Limberlost,N ORACLE RD & W LIMBERLOST DR,32.282317,-110.978403,,,,,,0
12241,ORRO(SW),Oracle/Roger,N ORACLE RD & W ROGER RD,32.278945,-110.978286,,,,,,0
12242,ORSI(NW),Oracle/Simmons St,N ORACLE RD & W SIMMONS RD,32.275257,-110.97829,,,,,,0
12243,ORPR(SW),Oracle/Prince,N ORACLE RD & W PRINCE RD,32.271767,-110.97824,,,,,,0
12245,ORFL(NW),Oracle/Ft Lowell,N ORACLE RD & W FORT LOWELL RD,32.266414,-110.978248,,,,,,0
12246,ORBL(NW),Oracle/Blacklidge,N ORACLE RD,32.261911,-110.978196,,,,,,0
12253,DR11(SW),Drachman/11th Av,W DRACHMAN ST & N 11TH AVE,32.239372,-110.976694,,,,,,0
12266,MA17(NW),Main/17th St,S MAIN AVE & W 17TH ST,32.213588,-110.974328,,,,,,0
12267,1019(SW),10th Av/19th St,S 10TH AVE & W 19TH ST,32.210549,-110.97473,,,,,,0
12268,1021(NW),10th Av/21st St,S 10TH AVE & W 21ST ST,32.208244,-110.974712,,,,,,0
12270,1026(SW),10th Av/26th St,S 10TH AVE & W 26TH ST,32.202366,-110.974734,,,,,,0
12271,1032(NW),10th Av/32nd St,S 10TH AVE & W 32ND ST,32.196623,-110.974619,,,,,,0
12274,1041(SW),10th Av/41st St,S 10TH AVE & W 41ST ST,32.187385,-110.974655,,,,,,0
12275,1044(NW),10th Av/44th St,S 10TH AVE & W 43RD ST,32.18551,-110.976063,,,,,,0
12276,12VE(SW),12th Av/Veterans,S 12TH AVE & W VETERANS BLVD,32.180918,-110.977747,,,,,,0
12278,12DI(NW),12th Av/District,S 12TH AVE & W DISTRICT ST,32.174448,-110.977732,,,,,,0
12279,12MI(SW),12th Av/Michigan,S 12TH AVE & W MICHIGAN ST,32.170084,-110.977665,,,,,,0
12280,12OH(SW),12th Av/Ohio,S 12TH AVE & W OHIO ST,32.167494,-110.977684,,,,,,0
12281,12OK(NW),12th Av/Oklahoma,S 12TH AVE & W OKLAHOMA ST,32.165366,-110.977684,,,,,,0
12285,12NE(SW),12th Av/Nebraska,S 12TH AVE & W DAKOTA ST,32.155658,-110.977694,,,,,,0
12287,12CA(NW),12th Av/Canada Dr,S 12TH AVE & W CANADA ST,32.151572,-110.977693,,,,,,0
12288,12DR(SW),12th Av/Drexel,S 12TH AVE & W DREXEL RD,32.148412,-110.977661,,,,,,0
12290,12SR(SW),12th Av/Santa Rosa,S 12TH AVE & W SANTA ROSA ST,32.141028,-110.977729,,,,,,0
12292,12SM(SW),12th Av/Santa Maria,S 12TH AVE & W SANTA MARIA ST,32.137359,-110.977818,,,,,,0
12294,HA29(SE),Harrison/29th St,S HARRISON RD & E 29TH ST,32.198531,-110.789585,,,,,,0
12327,SPGD(SE),Speedway/Grady,E SPEEDWAY BLVD & N GRADY AVE,32.235464,-110.82715,,,,,,0
12332,HA5S(SW),Harrison/5th St,N HARRISON RD & E 5TH ST,32.227652,-110.789802,,,,,,0
12337,22LE(SW),22nd St/Lehigh Dr,E 22ND ST & LEHIGH DR,32.20637,-110.844806,,,,,,0
12338,22KO(SE),22nd St/Kolb,E 22ND ST & S KOLB RD,32.2063,-110.840409,,,,,,0
12339,22PR(SE),22nd St/Prudence,E 22ND ST & S PRUDENCE RD,32.206385,-110.832418,,,,,,0
12340,22PA(SE),22nd St/Pantano Rd,E 22ND ST & PANTANO RD,32.206324,-110.82619,,,,,,0
12341,22SF(SE),22nd St/Sarnoff,E 22ND ST & S SARNOFF DR,32.206313,-110.814958,,,,,,0
12343,BRSA(NW),Broadway/Sarnoff,E BROADWAY BLVD & N SARNOFF DR,32.221021,-110.816007,,,,,,0
12347,BRIH(NE),Broadway/Indian House,E BROADWAY BLVD & N INDIAN HOUSE RD,32.221679,-110.865508,,,,,,0
12366,22SF(NW),22nd St/Sarnoff,E 22ND ST & S SARNOFF DR,32.206504,-110.815664,,,,,,0
12367,PKAL(SW),Park/Alvord,S PARK AVE & E ALVORD RD,32.144686,-110.956272,,,,,,0
12368,BIRA(SE),Bilby/Randall,E BILBY RD & S RANDALL BLVD,32.141227,-110.951832,,,,,,0
12369,BIST(SE),Bilby/Stewart,E BILBY RD & S DEL MORAL BLVD,32.14124,-110.949544,,,,,,0
12370,BICA(SW),Bilby/Campbell,E BILBY RD & S CAMPBELL AVE,32.141245,-110.944226,,,,,,0
12371,CABI(SW),Campbell Av/Bilby,S CAMPBELL AVE & E BILBY RD,32.139888,-110.943552,,,,,,0
12384,VATU(NW),Valencia/Tucson Blvd,E VALENCIA RD & S TUCSON BLVD,32.134272,-110.935151,,,,,,0
12385,CABI(SE),Campbell Av/Bilby,S CAMPBELL AVE & E BILBY RD,32.140237,-110.943367,,,,,,0
12386,BICA(NW),Bilby/Campbell,E BILBY RD & S DEL MORAL BLVD,32.141353,-110.944288,,,,,,0
12387,BIST(NE),Bilby/Stewart,E BILBY RD & S STEWART BLVD,32.141402,-110.94987,,,,,,0
12388,BIRA(NW),Bilby/Randall,E BILBY RD & S RANDALL BLVD,32.141392,-110.952288,,,,,,0
12389,PKAL(NE),Park/Alvord,S PARK AVE & E MILTON RD,32.145232,-110.956085,,,,,,0
12391,GRST(NW),Grant/Stone,W GRANT RD & N STONE AVE,32.250405,-110.972353,,,,,,0
12393,GR15(NW),Grant/15th Av,W GRANT RD & N 15TH AVE,32.250317,-110.982853,,,,,,0
12394,GRFA(NW),Grant/Fairview,W GRANT RD & N FAIRVIEW AVE,32.250407,-110.986829,,,,,,0
12395,GRFO(NE),Grant/Forbes,W GRANT RD & N FORBES BL,32.250483,-110.995287,,,,,,0
12397,GRHU(NE),Grant/Huachuca,W GRANT RD & N HUACHUCA DR,32.25063,-111.001952,,,,,,0
12398,GRCY(NW),Grant/Coyote Dr,W GRANT RD & N COYOTE DR,32.250661,-111.005333,,,,,,0
12399,GRJO(NW),Grant/Jordan,W GRANT RD & N JONATHAN AVE,32.250726,-111.008407,,,,,,0
12400,GRJO(SW),Grant/Jordan,W GRANT RD & N JORDAN DR,32.250484,-111.008481,,,,,,0
12402,GRDR(SE),Grant/Dragoon,W GRANT RD & N DRAGOON ST,32.250429,-111.000151,,,,,,0
12403,GRFO(SE),Grant/Forbes,W GRANT RD & N HUACHUCA DR,32.250297,-110.994907,,,,,,0
12404,GRFA(SE),Grant/Fairview,W GRANT RD & N FAIRVIEW AVE,32.250152,-110.986138,,,,,,0
12405,GR15(SE),Grant/15th Av,W GRANT RD & N 15TH AVE,32.250147,-110.981841,,,,,,0
12407,GRST(SE),Grant/Stone,E GRANT RD & N STONE AVE,32.250243,-110.971071,,,,,,0
12408,GR6A(SE),Grant/6th Av,E GRANT RD & N 4TH AVE,32.250273,-110.967397,,,,,,0
12409,GR3A(SE),Grant/3rd Av,E GRANT RD & N 3RD AVE,32.250194,-110.963645,,,,,,0
12411,GRPA(SE),Grant/Park,E GRANT RD & N FREMONT AVE,32.249588,-110.95628,,,,,,0
12412,GRMO(SE),Grant/Mountain,E GRANT RD & N HIGHLAND AVE,32.249797,-110.952191,,,,,,0
12413,GRCH(SE),Grant/Cherry,E GRANT RD & N CHERRY AVE,32.249843,-110.948198,,,,,,0
12414,GRMA(SW),Grant/Martin,E GRANT RD & N MARTIN AVE,32.249825,-110.945617,,,,,,0
12424,SI10(NW),Silverlake/I-10 Interstate,W SILVERLAKE RD & S SANTA CRUZ LN,32.199607,-110.981332,,,,,,0
12425,SISC(NW),Silverlake/Santa Cruz,W SILVERLAKE RD & S SANTA CRUZ LN,32.19963,-110.986572,,,,,,0
12426,SICW(NE),Silverlake/Cottonwood,W SILVERLAKE RD & S COTTONWOOD LN,32.19963,-110.990026,,,,,,0
12427,SICJ(IF),Silverlake/County Jail,W SILVERLAKE RD & S COTTONWOOD LN,32.199628,-110.993171,,,,,,0
12429,WECO(NE),Westmoreland/Congress,EL RIO WASH & W CEDAR ST,32.219988,-110.99229,,,,,,0
12430,WEAL(NE),Westmoreland/Alameda,EL RIO WASH & N WESTMORELAND AVE,32.222138,-110.992537,,,,,,0
12431,WEFR(SE),Westmoreland/Fresno,EL RIO WASH & N WESTMORELAND AVE,32.224365,-110.992799,,,,,,0
12433,SISP(SE),Silverbell/Sonoran Palms Apts,,32.224944,-110.996603,,,,,,0
12434,SISM(SE),Silverbell/St Mary's(SE),N SILVERBELL RD & W SAINT MARYS RD,32.2277,-110.998566,,,,,,0
12436,SMWE(SE),St Mary's/Westmoreland,W SAINT MARYS RD & N WESTMORELAND AVE,32.229154,-110.993537,,,,,,0
12440,SPCL(SE),Speedway/Columbia,W SPEEDWAY BLVD & N COLUMBIA AVE,32.235527,-110.987991,,,,,,0
12444,GRST(SW),Granada/St Marys,N GRANADA AVE & N 1ST AVE,32.227127,-110.978261,,,,,,0
12446,ALCO(SE),Alameda/Court Av,W ALAMEDA ST & N COURT AVE,32.223558,-110.973453,,,,,,0
12451,GRCY(SE),Grant/Coyote Dr,W GRANT RD & N HUACHUCA DR,32.250499,-111.004665,,,,,,0
12456,ERAZ(SW),El Rio Dr/Aztec,W EL RIO DR & N AZTEC AVE,32.243416,-110.999203,,,,,,0
12457,ERMO(SW),El Rio Dr/Mohave,W EL RIO DR & N MOHAVE AVE,32.243696,-110.997651,,,,,,0
12459,RIER(NW),Riverview/El Rio Dr,W RIVERVIEW BLVD & N EL RIO DR,32.23913,-110.992779,,,,,,0
12466,COCO(NW),Congress/Av del Convento,W CONGRESS ST & N MELWOOD AVE,32.220358,-110.986115,,,,,,0
12467,COBO(NW),Congress/Bonita,W CONGRESS ST & N BONITA AVE,32.220587,-110.983664,,,,,,0
12473,COIN(NW),Congress/I-10,W CONGRESS ST & N FREEWAY,32.220875,-110.981172,,,,,,0
12484,ERNA(SW),El Rio Dr/Navajo,W EL RIO DR & N NAVAJO ST,32.242266,-110.993696,,,,,,0
12489,SILE(NE),Silverbell/Lester,N SILVERBELL RD & W LESTER ST,32.244056,-111.008978,,,,,,0
12490,SIRI(NE),Silverbell/Riverview,N SILVERBELL RD & W RIVERVIEW ST,32.245819,-111.010109,,,,,,0
12491,SITA*NE*,Silverbell/Tanglewood,N SILVERBELL RD & W RIVERVIEW ST,32.24811,-111.011888,,,,,,0
12492,12HE(SE),12th St/Herbert,E 12TH ST & S HERBERT AVE,32.219857,-110.966132,,,,,,0
12493,4A13(SW),4th Av/13th St,S 4TH AVE & E 13TH ST,32.218299,-110.965629,,,,,,0
12494,4A15(NW),4th Av/15th St,S 4TH AVE & E 15TH ST,32.21617,-110.965615,,,,,,0
12495,4A17(SW),4th Av/17th St,S 4TH AVE & E 17TH ST,32.21282,-110.965586,,,,,,0
12497,4A22(SW),4th Av/22nd St,S 4TH AVE & E 22ND ST,32.206365,-110.965471,,,,,,0
12499,4A27(SW),4th Av/27th St,S 4TH AVE & E 27TH ST,32.201186,-110.965494,,,,,,0
12500,299A(NW),29th St/9th Av,W 29TH ST & S 9TH AVE,32.199566,-110.973311,,,,,,0
12501,2911*NW*,29th St/11th Av,W 29TH ST & S 11TH AVE,32.199615,-110.976332,,,,,,0
12507,SMMI(NW),San Marcos/Mission,W SAN MARCOS BLVD & S MISSION RD,32.203013,-110.99638,,,,,,0
12508,SMSA(NW),San Marcos/San Antonio,W SAN MARCOS BL & S SAN ANTONIO DR,32.203203,-110.999303,,,,,,0
12511,SMSN(NW),San Marcos/Cmo Santiago,W SAN MARCOS BLVD & S CAMINO SANTIAGO,32.203222,-111.007897,,,,,,0
12512,LCAM(SW),La Cholla/A Mountain Ctr,S LA CHOLLA BLVD,32.201571,-111.011765,,,,,,0
12513,LCSJ(SW),La Cholla/San Juan,S LA CHOLLA BLVD & W SAN JUAN TRL,32.198578,-111.011786,,,,,,0
12514,36LC(SE),36th St/La Cholla,W 36TH ST & S LA CHOLLA BLVD,32.192209,-111.011297,,,,,,0
12515,36EH(SE),36th St/Enchanted Hills,W 36TH ST & W DOMINY RD,32.192225,-111.007112,,,,,,0
12516,36LE(SW),36th St/Lands End,W 36TH ST & S LANDS END RD,32.19222,-111.004213,,,,,,0
12517,36MI(SW),36th St/Mission,W 36TH ST & S MISSION RD,32.192205,-110.999927,,,,,,0
12518,MI28(SB),Mission/2800 Block,S MISSION RD & W 36TH ST,32.188679,-111.000286,,,,,,0
12521,MILP(SW),Mission/C La Paz,S MISSION RD & C LA PAZ,32.183807,-111.003284,,,,,,0
12522,MIVE(NW),Mission/Veterans,S MISSION RD & W CALLE ACAPULCO,32.181697,-111.003338,,,,,,0
12527,MPDR(SW),Midvale Park/Drexel,S MIDVALE PARK RD & W DREXEL RD,32.14803,-110.998919,,,,,,0
12528,MIVI(SW),Mission/Via Ingresso,S MISSION RD,32.168927,-111.005716,,,,,,0
12529,MPHO(SW),Midvale Park/Houchin,S MIDVALE PARK RD & W HOUCHIN WAY,32.143604,-110.999089,,,,,,0
12530,MPHE(SW),Midvale Park/Headley,S MIDVALE PARK RD & HEADLEY,32.139529,-110.99908,,,,,,0
12531,MPWA(NW),Midvale Park/Walmart,S MIDVALE PARK RD & W JOYCE LOU DR,32.136873,-110.999073,,,,,,0
12541,IR15*SE*,Irvington/15th Av,W IRVINGTON RD & S 15TH AVE,32.163121,-110.980449,,,,,,0
12542,IR11(SE),Irvington/11th Av,W IRVINGTON RD & S 11TH AVE,32.163145,-110.976052,,,,,,0
12547,CADR(SW),Cardinal/Drexel,S CARDINAL AVE & W DREXEL RD,32.147824,-111.028789,,,,,,0
12552,VACR(NW),Valencia/Cardinal,W VALENCIA RD & S CARDINAL AV,32.133918,-111.030451,,,,,,0
12557,DRCR(SE),Drexel/Cardinal,W DREXEL RD & S CARDINAL AVE,32.14826,-111.028354,,,,,,0
12558,DRHI(SE),Drexel/Hildreth,W DREXEL RD & S ORIOLE AVE,32.14826,-111.023855,,,,,,0
12559,DRWE(SE),Drexel/Westover,W DREXEL RD & S WESTOVER AVE,32.148283,-111.019774,,,,,,0
12566,IRRS(SE),Irvington/Rio Seco Apts,W IRVINGTON RD,32.163051,-110.994156,,,,,,0
12570,SPST(NW),Speedway/Stone,W SPEEDWAY BLVD & E SPEEDWAY BLVD,32.235993,-110.972254,,,,,,0
12571,SP10(NW),Speedway/10th Av,W SPEEDWAY BLVD & N 10TH AVE,32.23609,-110.975117,,,,,,0
12572,SPMA(NW),Speedway/Main,W SPEEDWAY BLVD & N 13TH AVE,32.235947,-110.97838,,,,,,0
12573,SPCL(NE),Speedway/Columbia,W SPEEDWAY BLVD & N COLUMBIA AVE,32.235707,-110.988858,,,,,,0
12574,SPCE(SE),Speedway/Cuesta,W SPEEDWAY BLVD & N RIVERVIEW BLVD,32.235613,-110.994716,,,,,,0
12578,SPSI(NW),Speedway/Silverbell,W SPEEDWAY BLVD & N SILVERBELL RD,32.235712,-111.005151,,,,,,0
12579,SPLL(IF),Speedway/La Lomita Apts,,32.235598,-111.010814,,,,,,0
12580,GRSP(SW),Greasewood/Speedway,N GREASEWOOD RD & W SPEEDWAY BLVD,32.235495,-111.02165,,,,,,0
12583,ANSA(SE),Anklam/Cmo Santiago,W ANKLAM RD & N COURT AVE,32.225127,-111.007111,,,,,,0
12584,SMAN(SE),St Mary's/Anklam,W SAINT MARYS RD & W ANKLAM RD,32.226892,-111.005061,,,,,,0
12585,SMCE(SE),St Mary's/Centenniel,W SAINT MARYS RD & N SAN RAFAEL AVE,32.228433,-111.002224,,,,,,0
12586,SISM(NE),Silverbell/St Mary's,N SILVERBELL RD & N OMAR DR,32.229296,-110.999112,,,,,,0
12587,SISJ(SW),Silverbell/San Jose,N SILVERBELL RD & N STONE AVE,32.230502,-111.00087,,,,,,0
12588,SIRC(NE),Silverbell/Riley Circle,N SILVERBELL RD & W RILEY CIR,32.233527,-111.002733,,,,,,0
12589,SPSI(SE),Speedway/Silverbell,W SPEEDWAY BLVD & N SILVERBELL RD,32.235485,-111.003082,,,,,,0
12590,SPSE(SW),Speedway/Seminole,W SPEEDWAY BL & N EL RIO DR,32.23551,-111.000372,,,,,,0
12591,SPCH(SE),Speedway/Cherokee,W SPEEDWAY BLVD & N CUESTA AVE,32.235592,-110.996923,,,,,,0
12594,SPAD(SW),Speedway/Alder,W SPEEDWAY BLVD & N ALDER AVE,32.235774,-110.977366,,,,,,0
12595,SP10(SE),Speedway/10th Av,W SPEEDWAY BLVD & N 10TH AVE,32.235798,-110.974418,,,,,,0
12596,SPST(SE),Speedway/Stone,E SPEEDWAY BLVD & E FOOTHILLS DR,32.235824,-110.971339,,,,,,0
12602,SWAN(NE),Swan/Andrew,S SWAN RD & E ANDREW ST,32.203371,-110.892246,,,,,,0
12603,SW24(NE),Swan/24th St,S SWAN RD & E 24TH ST,32.204977,-110.892226,,,,,,0
12604,SWEA(SE),Swan/Eastland,S SWAN RD & E 19TH ST,32.211034,-110.892204,,,,,,0
12605,SW17(NE),Swan/17th St,S SWAN RD & E 17TH ST,32.21386,-110.89219,,,,,,0
12606,SWSC(NE),Swan/Scarlett,S SWAN RD & E 14TH ST,32.217898,-110.892214,,,,,,0
12607,SWBR(NE),Swan/Broadway,N SWAN RD & E BROADWAY BLVD,32.221927,-110.892239,,,,,,0
12608,SWBU(NE),Swan/Burns,N SWAN RD & E BURNS ST,32.225067,-110.892263,,,,,,0
12609,SW5S(NE),Swan/5th St,N SWAN RD & E BURNS ST,32.229124,-110.892341,,,,,,0
12610,SWHA(SE),Swan/Hawthorne,N SWAN RD & E 3RD ST,32.232785,-110.892444,,,,,,0
12613,PAPO(NE),Pantano/Poinciana,S PANTANO RD & E POINCIANA DR,32.168596,-110.823763,,,,,,0
12614,PADO(SE),Pantano/Dogwood,S PANTANO RD & E DOGWOOD ST,32.172455,-110.82376,,,,,,0
12624,KO29(NE),Kolb/29th St,S KOLB RD & E 29TH ST,32.19943,-110.840849,,,,,,0
12626,KO22(NE),Kolb/22nd St,S KOLB RD & E 22ND ST,32.207147,-110.840826,,,,,,0
12629,KOBB*NE*,Kolb/Bonnie Brae,S KOLB RD & E BROADWAY BLVD,32.218784,-110.840834,,,,,,0
12631,KO5S(NE),Kolb/5th St,N KOLB RD & E 5TH ST,32.228499,-110.840871,,,,,,0
12632,KO3S*NE*,Kolb/3rd St,N KOLB RD & E ROSEWOOD ST,32.231678,-110.840881,,,,,,0
12633,IR6A(SE),Irvington/6th Av,E IRVINGTON RD & S 6TH AVE,32.163151,-110.967651,,,,,,0
12634,IR3A(SE),Irvington/3rd Av(SE),E IRVINGTON RD & S 3RD AV,32.163163,-110.964437,,,,,,0
12635,IR1A(SW),Irvington/1st Av(SW),E IRVINGTON RD & S 1ST AVE,32.163247,-110.960682,,,,,,0
12637,IRPK(SE),Irvington/Park Av,E IRVINGTON RD & S PARK AVE,32.163268,-110.955785,,,,,,0
12638,IRMO(SW),Irvington/Mountain,E IRVINGTON RD & S MOUNTAIN AVE,32.16325,-110.952588,,,,,,0
12639,IRHI(SW),Irvington/Highland,E IRVINGTON RD & S HIGHLAND DR,32.163228,-110.949967,,,,,,0
12640,IRCH(SE),Irvington/Cherry,E IRVINGTON RD & S CHERRY AVE,32.163215,-110.947293,,,,,,0
12641,CAWY(SW),Campbell Av/Wyoming,S CAMPBELL AVE & E WYOMING ST,32.159214,-110.943556,,,,,,0
12642,CABA(SW),Campbell Av/Bantam,S CAMPBELL AV & E BANTAM RD,32.155667,-110.943492,,,,,,0
12643,CAOR(SW),Campbell Av/Oregon,S CAMPBELL AVE & E OREGON ST,32.153492,-110.943518,,,,,,0
12644,CAHO(NE),Campbell Av/Holladay,S CAMPBELL AVE & E MINORKA RD,32.151481,-110.943362,,,,,,0
12645,DRCA(SE),Drexel/Campbell,E DREXEL RD & S CAMPBELL AVE,32.148587,-110.942884,,,,,,0
12646,DRJA(SE),Drexel/Jasmine,E DREXEL RD & S JASMINE WY,32.148603,-110.940113,,,,,,0
12647,DRWI(SE),Drexel/Wilson,E DREXEL RD & S WILSON AV,32.148624,-110.937268,,,,,,0
12649,DRCC(SE),Drexel/Country Club MHP,E DREXEL RD,32.148713,-110.92914,,,,,,0
12654,CCMI(SW),Country Club/Missouri,S COUNTRY CLUB RD & E IRVINGTON RD,32.166332,-110.926435,,,,,,0
12659,BHPV(SW),Benson Hy/Palo Verde,E BENSON HWY & S PALO VERDE RD,32.152476,-110.91863,,,,,,0
12660,BH35(WB),Benson Hy/3562 E Benson,E BENSON HWY & E DREXEL RD,32.15069,-110.915317,,,,,,0
12667,DRCT(SW),Drexel/Catalina,E DREXEL RD & S CATALINA AVE,32.148831,-110.899191,,,,,,0
12668,BERA(SW),Belvedere/Ray Strav,S BELVEDERE AVE & E RAY ST,32.145205,-110.896496,,,,,,0
12669,BERE(SW),Belvedere/Rex Strav,S BELVEDERE AV & E REX SV,32.141523,-110.896404,,,,,,0
12671,LICR(SW),Littletown/Craycroft,E LITTLETOWN RD & S LANTANA VISTA DR,32.134143,-110.875562,,,,,,0
12672,CRDR(NW),Craycroft/Dream,S CRAYCROFT RD & E LITTLETOWN RD,32.130976,-110.874976,,,,,,0
12681,BHAV(NW),Benson Hy/Alvernon,E BENSON HY & S ALVERNON WY,32.147567,-110.9102,,,,,,0
12682,BHDR(NW),Benson Hy/Drexel,E BENSON HWY & E DREXEL RD,32.149075,-110.912761,,,,,,0
12684,BHPV(NW),Benson Hy/Palo Verde,E BENSON HWY & S PALO VERDE RD,32.152681,-110.918404,,,,,,0
12689,CCMI*NE*,Country Club/Missouri,S COUNTRY CLUB RD & E MISSOURI ST,32.166874,-110.926246,,,,,,0
12697,DRWI(NW),Drexel/Wilson,E DREXEL RD & S WILSON AVE,32.148731,-110.938142,,,,,,0
12698,DRJA(NW),Drexel/Jasmine,E DREXEL RD & S JASMINE WAY,32.14874,-110.940837,,,,,,0
12699,CADR(NE),Campbell Av/Drexel,S CAMPBELL AVE & E VIRGINIA ST,32.149022,-110.943401,,,,,,0
12700,CAHO(SW),Campbell Av/Holladay,S CAMPBELL AVE & E HOLLADAY ST,32.151273,-110.94353,,,,,,0
12701,CAOR(SE),Campbell Av/Oregon,S CAMPBELL AVE & E CANADA ST,32.153554,-110.94338,,,,,,0
12702,CABA(NE),Campbell Av/Bantam,S CAMPBELL AV & E BANTAM RD,32.156051,-110.943338,,,,,,0
12704,CAIR(SE),Campbell Av/Irvington,S CAMPBELL AVE & UNNAMED,32.160752,-110.943277,,,,,,0
12706,IRMO(NW),Irvington/Mountain,E IRVINGTON RD & S MOUNTAIN AVE,32.163406,-110.952668,,,,,,0
12707,IRPK(NW),Irvington/Park Av,E IRVINGTON RD & S CALLE OLE,32.163402,-110.956806,,,,,,0
12708,IR1A(NE),Irvington/1st Av(NE),E IRVINGTON RD & S 1ST AVE,32.16342,-110.960141,,,,,,0
12709,IR3A(NW),Irvington/3rd Av(NW),E IRVINGTON RD & S 3RD AVE,32.163334,-110.964916,,,,,,0
12715,IRRS(IF),Irvington/Rio Seco Apts,W IRVINGTON RD,32.16334,-110.994775,,,,,,0
12723,DRWE*NW*,Drexel/Westover,W DREXEL RD & S WESTOVER AVE,32.148417,-111.020528,,,,,,0
12725,KO3S(SW),Kolb/3rd St,N KOLB RD & E 3RD ST,32.23133,-110.841108,,,,,,0
12726,KO5S(SW),Kolb/5th St,N KOLB RD & E 5TH ST,32.22801,-110.841092,,,,,,0
12729,KOBB(SW),Kolb/Bonnie Brae,S KOLB RD & E BONNIE BRAE DR,32.218319,-110.841084,,,,,,0
12732,KO22(SW),Kolb/22nd St,S KOLB RD & E 22ND ST,32.206075,-110.841071,,,,,,0
12733,KOCE(SW),Kolb/C Centuri,S KOLB RD & E C CENTURI,32.201852,-110.841155,,,,,,0
12743,PAES(SW),Pantano/Escalante,S PANTANO RD & E ESCALANTE RD,32.176997,-110.823995,,,,,,0
12744,PADO(SW),Pantano/Dogwood,S PANTANO RD & E DOGWOOD ST,32.17207,-110.82404,,,,,,0
12746,SWFA(NE),Swan/Fairmount,N SWAN RD & E ADAMS ST,32.24,-110.892568,,,,,,0
12748,SWPI(NE),Swan/Pima,N SWAN RD & E PIMA ST,32.243679,-110.892554,,,,,,0
12749,SWSE(NE),Swan/Seneca,N SWAN RD & E HAMPTON ST,32.247196,-110.892574,,,,,,0
12750,SWED(NE),Swan/Edison,N SWAN RD & E DUNCAN ST,32.249089,-110.892571,,,,,,0
12751,SWWA(NE),Swan/Water St,N SWAN RD & E BERMUDA ST,32.253772,-110.892523,,,,,,0
12757,SWSC(NW),Swan/San Carlos,N SWAN RD & E SAN CARLOS PL S,32.25363,-110.892722,,,,,,0
12758,SWSE(SW),Swan/Seneca,N SWAN RD & E WAVERLY ST,32.246749,-110.892809,,,,,,0
12760,SWPI(SW),Swan/Pima,N SWAN RD & E PIMA ST,32.24308,-110.892796,,,,,,0
12762,SWBE(SW),Swan/Bellevue,N SWAN RD & E BELLEVUE ST,32.237749,-110.892768,,,,,,0
12763,SW3S(SW),Swan/3rd St,N SWAN RD & E 3RD ST,32.232214,-110.892694,,,,,,0
12765,SW5S(SW),Swan/5th St,N SWAN RD & E 6TH ST,32.228419,-110.892593,,,,,,0
12766,SWBU(SW),Swan/Burns,N SWAN RD & E BURNS ST,32.224634,-110.892518,,,,,,0
12767,SWBR(SW),Swan/Broadway,S SWAN RD & E 12TH ST,32.221027,-110.892504,,,,,,0
12768,SW14(SW),Swan/14th St,S SWAN RD & E 1ST ST,32.217352,-110.892402,,,,,,0
12778,29BE(SE),29th St/Beverly,E 29TH ST & S BEVERLY AVE,32.199542,-110.878606,,,,,,0
12779,29CR(SE),29th St/Craycroft,E 29TH ST & S CRAYCROFT RD,32.199589,-110.874629,,,,,,0
12783,1AWE(SW),1st Av/Wetmore,N 1ST AVE & E WETMORE RD,32.286163,-110.961235,,,,,,0
12786,1ARO(SW),1st Av/Roger,N 1ST AVE & E ROGER RD,32.278806,-110.961262,,,,,,0
12790,FLPK(SE),Fort Lowell/Park,E FORT LOWELL RD & E NAVAJO RD,32.264709,-110.956529,,,,,,0
12792,FLMO(SE),Fort Lowell/Mountain,E FORT LOWELL RD & N MOUNTAIN AVE,32.264704,-110.951998,,,,,,0
12794,FLCA(NW),Fort Lowell/Campbell,E FORT LOWELL RD & N CAMPBELL AVE,32.264908,-110.944174,,,,,,0
12795,FLWI(SE),Fort Lowell/Wilson,E FORT LOWELL RD & N WILSON AVE,32.264772,-110.93924,,,,,,0
12796,FLTU(SE),Fort Lowell/Tucson,E FORT LOWELL RD & N TUCSON BLVD,32.264828,-110.93475,,,,,,0
12797,FL28(EB),Fort Lowell/2828 E Fort Lowell,E FORT LOWELL RD & N CHRISTMAS AVE,32.26486,-110.929421,,,,,,0
12798,FLCC(SE),Fort Lowell/Country Club,E FORT LOWELL RD & N COUNTRY CLUB RD,32.264823,-110.926324,,,,,,0
12799,FLED(SE),Fort Lowell/Edith,E FORT LOWELL RD & N EDITH BLVD,32.264948,-110.92199,,,,,,0
12800,FLPV(SE),Fort Lowell/Palo Verde,E FORT LOWELL RD & N PALO VERDE AVE,32.264997,-110.917392,,,,,,0
12805,GLCB(SE),Glenn/Columbus,E GLENN ST & N COLUMBUS BLVD,32.257764,-110.900688,,,,,,0
12806,GLDE(SE),Glenn/Desert Av,E GLENN ST & N DESERT AVE,32.257836,-110.895586,,,,,,0
12807,GLSW(SE),Glenn/Swan,E GLENN ST & N SWAN RD,32.257833,-110.892059,,,,,,0
12808,GLAR(SE),Glenn/Arcadia,E GLENN ST & N ARCADIA AVE,32.257855,-110.887856,,,,,,0
12811,CRGN(SW),Craycroft/Glenn,N CRAYCROFT RD & E GLENN ST,32.257641,-110.875348,,,,,,0
12812,CRSI(SW),Craycroft/Silver,N CRAYCROFT RD & E COPPER ST,32.254142,-110.875398,,,,,,0
12813,CRGR(SW),Craycroft/Grant,N CRAYCROFT RD & E GRANT RD,32.250039,-110.875454,,,,,,0
12816,CRPI(SW),Craycroft/Pima,N CRAYCROFT RD & E PIMA ST,32.243154,-110.875631,,,,,,0
12819,CRSP(SW),Craycroft/Speedway,N CRAYCROFT RD & E SPEEDWAY BLVD,32.23544,-110.875617,,,,,,0
12822,CR5S(SW),Craycroft/5th St,N CRAYCROFT RD & E 5TH ST,32.228586,-110.875643,,,,,,0
12823,CR8S(SW),Craycroft/8th St,N CRAYCROFT RD & E 8TH ST,32.22538,-110.875427,,,,,,0
12828,CR16(SW),Craycroft/16th St,S CRAYCROFT RD & E 16TH ST,32.213938,-110.875279,,,,,,0
12831,CR22(SW),Craycroft/22nd St,S CRAYCROFT RD & E 22ND ST,32.206371,-110.875204,,,,,,0
12832,CR26(SW),Craycroft/26th St,S CRAYCROFT RD & E 26TH ST,32.20224,-110.875186,,,,,,0
12834,CR32*SW*,Craycroft/32nd St(SW),S CRAYCROFT RD & E 32ND ST,32.195958,-110.875213,,,,,,0
12847,CRGL(NE),Craycroft/Golf Links,S CRAYCROFT RD & E GOLF LINKS RD,32.192959,-110.875002,,,,,,0
12848,CR32(NE),Craycroft/32nd St(NE),S CRAYCROFT RD & E 32ND ST,32.196844,-110.874958,,,,,,0
12849,CR25(NE),Craycroft/25th St,S CRAYCROFT RD & E 25TH ST,32.203871,-110.874998,,,,,,0
12850,CRJU(NE),Craycroft/Juarez,S CRAYCROFT RD & E JUAREZ ST,32.205658,-110.874989,,,,,,0
12851,CR22(NE),Craycroft/22nd St,S CRAYCROFT RD & E BEVERLY ST,32.207261,-110.874961,,,,,,0
12852,CR20(NE),Craycroft/20th St,S CRAYCROFT RD & E 20TH ST,32.21003,-110.874994,,,,,,0
12853,CRWI(NE),Craycroft/Wilshire,S CRAYCROFT RD & E SOUTH WILSHIRE DR,32.214783,-110.875026,,,,,,0
12854,CRSJ(NE),Craycroft/St Joseph Church,S CRAYCROFT RD & E COOPER ST,32.218706,-110.875122,,,,,,0
12857,BRCH(NE),Broadway/Chantilly,E BROADWAY BLVD & N CHANTILLY DR,32.22169,-110.868142,,,,,,0
12860,CRHO*NE*,Craycroft/Holmes,N CRAYCROFT RD & HOLMES,32.227523,-110.875287,,,,,,0
12861,CR5S(NE),Craycroft/5th St,N CRAYCROFT RD & E 5TH ST,32.229218,-110.87535,,,,,,0
12862,CRRO(NE),Craycroft/Rosewood,N CRAYCROFT RD & E ROSEWOOD ST,32.23292,-110.8754,,,,,,0
12864,CRSP(NE),Craycroft/Speedway,N CRAYCROFT RD & E SPEEDWAY BLVD,32.236824,-110.875415,,,,,,0
12866,CRFA(NE),Craycroft/Fairmount,N CRAYCROFT RD & E FAIRMOUNT ST,32.240022,-110.875375,,,,,,0
12867,CRLE(NE),Craycroft/Lee,N CRAYCROFT RD & E LEE ST,32.241862,-110.875387,,,,,,0
12868,CRPI(NE),Craycroft/Pima,N CRAYCROFT RD & E PIMA ST,32.243836,-110.875441,,,,,,0
12869,CRWA(NE),Craycroft/Waverly,N CRAYCROFT RD & E WAVERLY ST,32.246911,-110.875345,,,,,,0
12871,GLSI(NE),Glenn/Sidney,E GLENN ST & N SIDNEY BLVD,32.258001,-110.876439,,,,,,0
12872,GLBE(NW),Glenn/Beverly,E GLENN ST & N BEVERLY AVE,32.257992,-110.879896,,,,,,0
12873,GLRO(NW),Glenn/Rosemont,E GLENN ST & N ROSEMONT AVE,32.257938,-110.883353,,,,,,0
12880,FLRI(NW),Fort Lowell/Riverhaven,E FORT LOWELL RD & N RIVERHAVEN DR,32.265186,-110.902383,,,,,,0
12881,FLSY(NW),Fort Lowell/Sycamore,E FORT LOWELL RD & N SYCAMORE AVE,32.265182,-110.906576,,,,,,0
12882,FLDO(NW),Fort Lowell/Dodge,E FORT LOWELL RD & N DODGE BLVD,32.265243,-110.914689,,,,,,0
12883,FLPV(NW),Fort Lowell/Palo Verde,E FORT LOWELL RD & N PALO VERDE AVE,32.265128,-110.918867,,,,,,0
12884,FLED(NE),Fort Lowell/Edith,E FORT LOWELL RD & N EDITH BLVD,32.265102,-110.922042,,,,,,0
12885,FLCC(NW),Fort Lowell/Country Club,E FORT LOWELL RD & N COUNTRY CLUB RD,32.265033,-110.927275,,,,,,0
12887,FLTU(NW),Fort Lowell/Tucson,E FORT LOWELL RD & N TUCSON BLVD,32.264972,-110.935958,,,,,,0
12888,FLWI(NW),Fort Lowell/Wilson,E FORT LOWELL RD & N WILSON AVE,32.264921,-110.939865,,,,,,0
12889,FLCA(SE),Fort Lowell/Campbell,E FORT LOWELL RD & N CAMPBELL AVE,32.264768,-110.943538,,,,,,0
12891,FLMO(NW),Fort Lowell/Mountain,E FORT LOWELL RD & E NAVAJO RD,32.264919,-110.952728,,,,,,0
12895,1APR(SE),1st Av/Prince,N 1ST AV & E PRINCE RD,32.271599,-110.960913,,,,,,0
12897,1ARO(NE),1st Av/Roger,N 1ST AVE & E CALLE ARIZONA,32.279647,-110.960943,,,,,,0
12902,STRI(SW),Stone/River,W RIVER RD & N STONE AVE,32.295733,-110.971327,,,,,,0
12907,1ALI(NW),1st Av/Limberlost,N 1ST AVE & E LIMBERLOST DR,32.283295,-110.961228,,,,,,0
12910,1APT(SW),1st Av/Pastime Rd,N 1ST AVE & E PASTIME RD,32.275315,-110.961177,,,,,,0
12911,1APR(SW),1st Av/Prince,N 1ST AVE & E YAVAPAI RD,32.27146,-110.961209,,,,,,0
12912,1AYA(SW),1st Av/Yavapai,N 1ST AVE & E YAVAPAI RD,32.270074,-110.961114,,,,,,0
12913,1AHA(SW),1st Av/Halcyon,N 1ST AVE & E HALCYON RD,32.266981,-110.961148,,,,,,0
12914,1ABL(SW),1st Av/Blacklidge,N 1ST AVE & E BLACKLIDGE DR,32.260466,-110.961109,,,,,,0
12915,1AGL(SW),1st Av/Glenn,N 1ST AVE & E GLENN ST,32.257389,-110.961064,,,,,,0
12916,1AJA(SW),1st Av/Jacinto,N 1ST AVE & E JACINTO ST,32.253732,-110.961046,,,,,,0
12918,EULI(NW),Euclid/Linden,N EUCLID AVE & E LINDEN ST,32.244812,-110.959651,,,,,,0
12919,EUEL(SW),Euclid/Elm,N EUCLID AVE & E ELM ST,32.242378,-110.959653,,,,,,0
12920,EUDR(SW),Euclid/Drachman,N EUCLID AVE & E DRACHMAN ST,32.239356,-110.9596,,,,,,0
12921,EUSP(SW),Euclid/Speedway,N EUCLID AVE & E SPEEDWAY BLVD,32.235649,-110.959574,,,,,,0
12922,EU1S(SW),Euclid/1st St,N EUCLID AVE & E 2ND ST,32.234089,-110.959558,,,,,,0
12923,EUUN(SW),Euclid/University,N EUCLID AVE & E UNIVERSITY BLVD,32.231528,-110.959563,,,,,,0
12938,PK20(SW),Park/20th St,S PARK AVE & E 20TH ST,32.209221,-110.956374,,,,,,0
12939,PK25(NW),Park/25th St,S PARK AVE & E 25TH ST,32.203307,-110.956272,,,,,,0
12940,PKSI(SW),Park/Silverlake,S PARK AVE & E SILVERLAKE RD,32.199368,-110.956257,,,,,,0
12941,PK31(SW),Park/31st St,S PARK AV & E 31ST ST,32.197355,-110.95627,,,,,,0
12942,PK34(NW),Park/34th St,S PARK AVE & E 34TH ST,32.194791,-110.956206,,,,,,0
12943,PK35(SW),Park/35th St,S PARK AVE & E 35TH ST,32.193203,-110.956126,,,,,,0
12944,PK37(NW),Park/37th St,S PARK AVE & E 37TH ST,32.19168,-110.95645,,,,,,0
12946,PKAJ(SW),Park/Ajo(SW),S PARK AVE & E AJO WAY,32.176291,-110.956452,,,,,,0
12947,PKPS(SW),Park/Police Station,S PARK AVE & S SANTA CRUZ SUBSTATION RD,32.171993,-110.956359,,,,,,0
12948,PKOH(SW),Park/Ohio,S PARK AVE & E OHIO ST,32.167411,-110.95632,,,,,,0
12950,PKWY(NW),Park/Wyoming,S PARK AVE & E WYOMING ST,32.159824,-110.956304,,,,,,0
12951,PKBA(NW),Park/Bantam,S PARK AVE & E BANTAM RD,32.156228,-110.956261,,,,,,0
12952,PKMI(SW),Park/Minorka,S PARK AVE & E MINORKA RD,32.151909,-110.956222,,,,,,0
12956,PIDE(SE),Pima/Desmond,E PIMA ST & N DESMOND LN,32.24342,-110.905334,,,,,,0
12957,PICO(SE),Pima/Columbus,E PIMA ST & COLUMBUS,32.243345,-110.900724,,,,,,0
12958,PIBE(SE),Pima/Belvedere,E PIMA ST & N BELVEDERE AVE,32.243278,-110.896523,,,,,,0
12959,PISW(SE),Pima/Swan,E PIMA ST & N SWAN RD,32.24338,-110.89217,,,,,,0
12960,PIAR(SW),Pima/Arcadia,E PIMA ST & N ARCADIA AVE,32.243326,-110.888622,,,,,,0
12962,PIRS(SE),Pima/Rosemont,E PIMA ST & N ROSEMONT BLVD,32.243289,-110.883745,,,,,,0
12963,PIBV(NW),Pima/Beverly,E PIMA ST & N BEVERLY AVE,32.243495,-110.880137,,,,,,0
12964,PIWO(SW),Pima/Woodland,E PIMA ST & N WOODLAND AVE,32.243362,-110.878147,,,,,,0
12965,PICR(SE),Pima/Craycroft,E PIMA ST & N CRAYCROFT RD,32.243362,-110.875029,,,,,,0
12966,PIVB(SE),Pima/Van Buren,E PIMA ST & N VAN BUREN AVE,32.243337,-110.870731,,,,,,0
12967,PISA(SE),Pima/Sahuara,E PIMA ST & E LESTER DR,32.24331,-110.866415,,,,,,0
12968,PIRI(SE),Pima/Ridgeway,,32.243302,-110.863463,,,,,,0
12969,PIRO(SE),Pima/Rook,E PIMA ST & N ROOK AVE,32.243274,-110.859608,,,,,,0
12973,PISA(NW),Pima/Sahuara,E PIMA ST & N SAHUARA AVE,32.243522,-110.86722,,,,,,0
12974,PIVB(NW),Pima/Van Buren,E PIMA ST & N VAN BUREN AVE,32.243496,-110.871515,,,,,,0
12975,PICR(NW),Pima/Craycroft,E PIMA ST & N CRAYCROFT RD,32.243508,-110.875945,,,,,,0
12976,PIBV(SW),Pima/Beverly,E PIMA ST & N BEVERLY AVE,32.243349,-110.880133,,,,,,0
12977,PIRS(NE),Pima/Rosemont,E PIMA ST & N ROSEMONT BLVD,32.243496,-110.883774,,,,,,0
12978,PISR(NE),Pima/Santa Rosa,E PIMA ST & N SANTA ROSA AVE,32.243485,-110.885957,,,,,,0
12979,PIAR(NW),Pima/Arcadia,E PIMA ST & N ARCADIA AVE,32.243479,-110.888684,,,,,,0
12980,PISW(NW),Pima/Swan,E PIMA ST & N SWAN RD,32.243478,-110.893035,,,,,,0
12981,PIBE(NW),Pima/Belvedere,E PIMA ST & N CATALINA AVE,32.243505,-110.897249,,,,,,0
12982,PICO(NW),Pima/Columbus,E PIMA ST & N COLUMBUS BLVD,32.243454,-110.901525,,,,,,0
12983,PIDE(NW),Pima/Desmond,E PIMA ST & N DESMOND LN,32.243474,-110.90596,,,,,,0
12984,PIDO(NW),Pima/Dodge,E PIMA ST & N DODGE BLVD,32.243411,-110.914483,,,,,,0
12985,PIPV(NW),Pima/Palo Verde,E PIMA ST & N PALO VERDE BL,32.243425,-110.918613,,,,,,0
12986,PIHO(NW),Pima/Howard,E PIMA ST & N HOWARD BL,32.243371,-110.922805,,,,,,0
12987,ELCC(NW),Elm/Country Club,E ELM ST & N COUNTRY CLUB RD,32.243315,-110.927219,,,,,,0
12988,ELTR(NW),Elm/Treat,E ELM ST & N TREAT AV,32.243293,-110.93151,,,,,,0
12989,TUEL(SW),Tucson Bl/Elm,N TUCSON BL & E ELM ST,32.242097,-110.935454,,,,,,0
12991,TUDR(SW),Tucson Bl/Drachman,N TUCSON BLVD & E DRACHMAN ST,32.239462,-110.935386,,,,,,0
13010,AJPL(SW),Ajo/Plaza Del Sol,W AJO WAY & S VIA CANTO,32.177737,-111.00043,,,,,,0
13011,AJSC(SW),Ajo/School@1573 W Ajo,W AJO WAY & S PHOEBE AVE,32.177793,-110.997973,,,,,,0
13012,AJHI(SE),Ajo/Holiday Isle Blvd,W AJO WAY & S HOLIDAY BLVD,32.177761,-110.994204,,,,,,0
13013,AJVA(SW),Ajo/Valley Rd,W AJO WAY & S VALLEY RD,32.177715,-110.991692,,,,,,0
13014,AJ16(SE),Ajo/16th Av,W AJO WAY & S 16TH AVE,32.177739,-110.980778,,,,,,0
13016,AJ12(SE),Ajo/12th Av,W AJO WAY & S 12TH AVE,32.177679,-110.976974,,,,,,0
13017,AJLI(SE),Ajo/Liberty,W AJO WAY & S LIBERTY AVE,32.177735,-110.973426,,,,,,0
13030,AJLI(NW),Ajo/Liberty,W AJO WAY & S LIBERTY AVE,32.177884,-110.974071,,,,,,0
13031,AJ12(NW),Ajo/12th Av,W AJO WAY & S 12TH AVE,32.177938,-110.978155,,,,,,0
13032,AJ16(NW),Ajo/16th Av,W AJO WAY & S 16TH AVE,32.177962,-110.981702,,,,,,0
13033,AJCO(NW),Ajo/Cottonwood,W AJO WAY & COTTONWOOD,32.17794,-110.991732,,,,,,0
13036,AJFR(NW),Ajo/Freedom Drive,W AJO WAY & S FREEDOM DR,32.177946,-110.999244,,,,,,0
13038,AJCO(SE),Ajo/Cook,W AJO WY & S COOK ST,32.177795,-111.006449,,,,,,0
13050,PKDX(NE),Park/Drexel,S PARK AVE & E DREXEL RD,32.148884,-110.956039,,,,,,0
13051,PKMI(NE),Park/Minorka,S PARK AVE & E MINORKA RD,32.152617,-110.956087,,,,,,0
13052,PKBA(NE),Park/Bantam,S PARK AVE & E BANTAM RD,32.156242,-110.95602,,,,,,0
13053,PKWY(NE),Park/Wyoming,S PARK AVE & E WYOMING ST,32.160083,-110.956025,,,,,,0
13054,PKIR(NE),Park/Irvington,S PARK AV & E IRVINGTON RD,32.163866,-110.956064,,,,,,0
13055,PKOH(NE),Park/Ohio,S PARK AVE & E OHIO ST,32.167951,-110.956145,,,,,,0
13057,PKPA(NE),Park/Palmdale,S PARK AVE & E PALMDALE ST,32.175473,-110.956207,,,,,,0
13058,PKTM(NE),Park/Tucson Marketplace,S PARK AVE & E 39TH ST,32.187525,-110.956152,,,,,,0
13060,PK35(SE),Park/35th St,S PARK AVE & E 35TH ST,32.193418,-110.95606,,,,,,0
13061,PK34(NE),Park/34rd St,S PARK AVE & E 34TH ST,32.194882,-110.956023,,,,,,0
13062,PK31(SE),Park/31st St,S PARK AVE & E 31ST ST,32.197437,-110.956042,,,,,,0
13063,PKSI(NE),Park/Silverlake,S PARK AVE & E SILVERLAKE RD,32.199857,-110.956129,,,,,,0
13064,PK25(SE),Park/25th St,S PARK AVE & E 25TH ST,32.203135,-110.956135,,,,,,0
13069,4A20(NW),4th Av/20th St,S 4TH AVE & E 20TH ST,32.209548,-110.965559,,,,,,0
13079,EU9S(NE),Euclid/9th St,N EUCLID AVE & E 9TH ST,32.224077,-110.959362,,,,,,0
13080,EUUN(NE),Euclid/University,N EUCLID AVE & E 2ND ST,32.23195,-110.959389,,,,,,0
13081,EU1S(NE),Euclid/1st St,N EUCLID AVE & E 1ST ST,32.234461,-110.959389,,,,,,0
13082,EUSP(NE),Euclid/Speedway,N EUCLID AV & E SPEEDWAY BL,32.236402,-110.959386,,,,,,0
13084,EULE(NE),Euclid/Lester,N EUCLID AVE & E LESTER ST,32.243713,-110.959469,,,,,,0
13085,EUSE(NE),Euclid/Seneca,N EUCLID AVE & E SENECA ST,32.246894,-110.959481,,,,,,0
13087,1ACO(NE),1st Av/Copper,N 1ST AVE & E COPPER ST,32.254624,-110.960807,,,,,,0
13088,1AGL(NE),1st Av/Glenn,N 1ST AVE & E GLENN ST,32.257899,-110.960812,,,,,,0
13090,1AHA(NE),1st Av/Halcyon,N 1ST AVE & E HALCYON RD,32.267673,-110.960916,,,,,,0
13091,1AGY(NE),1st Av/Graybill,N 1ST AVE & E GRAYBILL DR,32.270045,-110.960924,,,,,,0
13095,1ALI(NE),1st Av/Limberlost,N 1ST AVE & E LIMBERLOST DR,32.283594,-110.960897,,,,,,0
13096,WECJ(IF),Wetmore/Carls Jr,E WETMORE RD & E LIMBERLOST DR,32.286749,-110.962653,,,,,,0
13098,WEST(NE),Wetmore/Stanley Pl,E WETMORE RD & N RADIN AVE,32.286629,-110.966988,,,,,,0
13099,WERA(SE),Wetmore/Radin Av,E WETMORE RD & N RADIN AVE,32.286486,-110.966044,,,,,,0
13118,WRPA(SW),Wrightstown/Pantano,E WRIGHTSTOWN RD & N PANTANO RD,32.250619,-110.825488,,,,,,0
13119,PAWR(SW),Pantano/Wrightstown,N PANTANO RD & E WRIGHTSTOWN RD,32.249724,-110.823954,,,,,,0
13121,PAPI(NW),Pantano/Pima,N PANTANO RD & E PIMA ST,32.243414,-110.823998,,,,,,0
13123,PAFA(SW),Pantano/Fairmount,N PANTANO RD & E FAIRMOUNT ST,32.238847,-110.824034,,,,,,0
13124,PASP(NE),Pantano/Speedway,N PANTANO RD & E BROADWAY BLVD,32.236184,-110.823678,,,,,,0
13127,PA5S(SW),Pantano/5th St(Entrada),N PANTANO RD & E 5TH ST,32.227835,-110.823904,,,,,,0
13128,PACP(NW),Pantano/CentrePark Dr,N PANTANO RD & E 5TH ST,32.22507,-110.823924,,,,,,0
13129,PASC*NW*,Pantano/Scarlett,S PANTANO RD & E SCARLETT ST,32.217769,-110.823956,,,,,,0
13130,PAKE(SW),Pantano/Kenyon,S PANTANO RD & E KENYON DR,32.21358,-110.8239,,,,,,0
13131,PA19(NE),Pantano/19th St,S PANTANO RD & E 19TH PL,32.210729,-110.823687,,,,,,0
13135,PA19(SW),Pantano/19th St,S PANTANO RD & E 19TH PL,32.210307,-110.823893,,,,,,0
13136,PAKE(NE),Pantano/Kenyon,S PANTANO RD & E KENYON DR,32.213885,-110.823682,,,,,,0
13137,PASC(NE),Pantano/Scarlett,S PANTANO RD & E SCARLETT ST,32.217763,-110.823743,,,,,,0
13139,PA5S(NE),Pantano/5th St,N PANTANO RD & E 5TH ST,32.228324,-110.823727,,,,,,0
13142,PASP(SW),Pantano/Speedway,N PANTANO RD & E SPEEDWAY BLVD,32.23518,-110.823976,,,,,,0
13143,PAPI(NE),Pantano/Pima,N PANTANO RD & E PIMA ST,32.243153,-110.823728,,,,,,0
13153,WI20(SW),Wilmot/20th St,S WILMOT RD & E 20TH ST,32.210377,-110.858116,,,,,,0
13154,WI22(SW),Wilmot/22nd St,S WILMOT RD & E 22ND ST,32.206332,-110.858085,,,,,,0
13155,WI26(SW),Wilmot/26th St,S WILMOT RD & E 26TH ST,32.202741,-110.858065,,,,,,0
13159,WIGL(SW),Wilmot/Golf Links,S WILMOT RD & E GOLF LINKS RD,32.191622,-110.857963,,,,,,0
13160,STWI(SE),Stella/Wilmot,E STELLA RD & S WILMOT RD,32.184582,-110.857393,,,,,,0
13162,STMA(SE),Stella/Mann,E STELLA RD & S MANN AVE,32.184609,-110.84902,,,,,,0
13163,STJE(SW),Stella/Jessica,E STELLA RD & S JESSICA AVE,32.184584,-110.844715,,,,,,0
13166,STMR(SE),Stella/Marc,E STELLA RD & S MARC DR,32.184587,-110.828269,,,,,,0
13168,STLA(SW),Stella/Lakeside,E STELLA RD & S LAKESIDE DR,32.184412,-110.822228,,,,,,0
13169,STSA(SE),Stella/Sarnoff,E STELLA RD & E MORMON DR,32.184417,-110.814334,,,,,,0
13170,STMG(SE),Stella/Magda,E STELLA RD & S MAGDA AVE,32.184371,-110.809598,,,,,,0
13172,CSMA(NW),Cmo Seco/Magda,S CMO SECO & S MAGDA AVE,32.182324,-110.806954,,,,,,0
13173,CSES(NW),Cmo Seco/Escalante,S CMO SECO & S FRICK AVE,32.178041,-110.806965,,,,,,0
13188,CSES(NE),Cmo Seco/Escalante,S CMO SECO & S FRICK AVE,32.177634,-110.806882,,,,,,0
13189,CSMA(NE),Cmo Seco/Magda,S CMO SECO & S MAGDA AVE,32.182287,-110.806869,,,,,,0
13191,STMO(NW),Stella/Morman Dr,E STELLA RD & S MORMON DR,32.184527,-110.811035,,,,,,0
13192,STSA(NW),Stella/Sarnoff,E STELLA RD & S SARNOFF DR,32.184551,-110.815138,,,,,,0
13193,STLA(NW),Stella/Lakeside,E STELLA RD & S LAKESIDE DR,32.184576,-110.822535,,,,,,0
13194,STPA(NW),Stella/Pantano,E STELLA RD & S PANTANO RD,32.184699,-110.824463,,,,,,0
13196,STMR(NW),Stella/Marc,E STELLA RD & S MARC DR,32.184755,-110.829098,,,,,,0
13198,STCH(SE),Stella/Charlotte,E STELLA RD & S CHARLOTTE AVE,32.184646,-110.837511,,,,,,0
13199,STLN(NW),Stella/Langley,E STELLA RD & S LANGLEY AVE,32.184711,-110.845992,,,,,,0
13201,STWI(NE),Stella/Wilmot,E STELLA RD & S WILMOT RD,32.184756,-110.857616,,,,,,0
13206,WI22(NE),Wilmot/22nd St,S WILMOT RD & E 22ND ST,32.207109,-110.85787,,,,,,0
13209,WIMA(SE),Wilmot/Malvern,S WILMOT RD & E MALVERN ST,32.214709,-110.857942,,,,,,0
13217,WIFA(SW),Wilmot/Fairmount,N WILMOT RD & E FAIRMOUNT ST,32.239177,-110.858087,,,,,,0
13240,WRPA(NW),Wrightstown/Pantano,E WRIGHTSTOWN RD & N PANTANO RD,32.250877,-110.824684,,,,,,0
13252,TUSP(NE),Tucson Bl/Speedway,N TUCSON BLVD & E HELEN ST,32.236619,-110.93525,,,,,,0
13253,TUDR(NE),Tucson Bl/Drachman,WILSON AVENUE WASH & N TUCSON BLVD,32.239977,-110.93521,,,,,,0
13255,LETU(SE),Lee/Tucson,E LEE ST & N FORGEUS AVE,32.241623,-110.935019,,,,,,0
13256,FOEL(SE),Forgeus/Elm,N FORGEUS AVE & E LEE ST,32.242708,-110.933849,,,,,,0
13257,ELTR(SE),Elm/Treat,E ELM ST & N TREAT AV,32.243143,-110.930786,,,,,,0
13258,PICC(SE),Pima/Country Club,E PIMA ST & N COUNTRY CLUB RD,32.243192,-110.926191,,,,,,0
13259,PIHO(SE),Pima/Howard,E PIMA ST & N HOWARD BL,32.243214,-110.92221,,,,,,0
13261,PIDO(SE),Pima/Dodge,E PIMA ST & N DODGE BLVD,32.243307,-110.913748,,,,,,0
13278,MASI(NW),Main/Simpson,S MAIN AVE & W SIMPSON ST,32.216088,-110.974411,,,,,,0
13282,2210(SE),22nd St/10th Av,W 22ND ST & S 10TH AVE,32.206696,-110.974202,,,,,,0
13283,228A(SE),22nd St/8th Av,W 22ND ST & S 8TH AVE,32.206661,-110.971003,,,,,,0
13284,226A(SE),22nd St/6th Av,E 22ND ST & S 6TH AVE,32.206745,-110.968204,,,,,,0
13285,224A(SE),22nd St/4th Av,E 22ND ST & S 4TH AVE,32.206698,-110.964584,,,,,,0
13286,22EU(SE),22nd St/Euclid,E 22ND ST & EUCLID,32.20679,-110.959005,,,,,,0
13291,22TR(SE),22nd St/Treat,E 22ND ST & S TREAT AVE,32.206785,-110.929924,,,,,,0
13296,22DO(SE),22nd St/Dodge,E 22ND ST & S DODGE AVE,32.206814,-110.913462,,,,,,0
13297,22IR(SE),22nd St/Irving,E 22ND ST & IRVING,32.206862,-110.904559,,,,,,0
13298,22CO(SE),22nd St/Columbus,E 22ND ST & S BELVEDERE AVE,32.206872,-110.900564,,,,,,0
13299,22BE(SE),22nd St/Belvedere,E 22ND ST & S BELVEDERE AVE,32.206844,-110.896318,,,,,,0
13300,22SW(SE),22nd St/Swan,E 22ND ST & S SWAN RD,32.206826,-110.892014,,,,,,0
13301,22MV(SE),22nd St/Mountain View,E 22ND ST & S MOUNTAIN VIEW,32.206795,-110.888311,,,,,,0
13302,22RO(SE),22nd St/Rosemont,S 22ND ST & ROSEMONT,32.206773,-110.883267,,,,,,0
13304,22BV(SE),22nd St/Beverly,E 22ND ST & S BEVERLY AVE,32.20679,-110.879008,,,,,,0
13306,22VB(SE),22nd St/Van Buren,E 22ND ST & S VAN BUREN AVE,32.206805,-110.870543,,,,,,0
13308,22AL(SW),22nd St/Alamo,E 22ND ST & S ALAMO AVE,32.206847,-110.86265,,,,,,0
13309,22PO(SE),22nd St/Av Polar,E 22ND ST & S AMHERST DR,32.206384,-110.85453,,,,,,0
13310,22SI(SE),22nd St/Av Sirio,E 22ND ST & S AVE SIRIO,32.206375,-110.850139,,,,,,0
13313,22TQ(SE),22nd St/Turquoise,E 22ND ST & S TURQUOISE VISTA,32.206338,-110.83624,,,,,,0
13316,22PP(SE),22nd St/Pantano Pkwy,E 22ND ST & PANTANO PKWY,32.206317,-110.822994,,,,,,0
13317,22SV(SE),22nd St/Sherwood Village Dr,E 22ND ST & S SHERWOOD VILLAGE DR,32.206294,-110.819631,,,,,,0
13319,22LU(SW),22nd St/Lusk,E 22ND ST & LUSK,32.206277,-110.811506,,,,,,0
13335,22LU(NW),22nd St/Lusk,E 22ND ST & S SARNOFF DR,32.206514,-110.811538,,,,,,0
13337,22SV(NE),22nd St/Sherwood Village Dr,E 22ND ST & S SHERWOOD VILLAGE DR,32.206514,-110.817934,,,,,,0
13338,22PA(NW),22nd St/Pantano Rd,E 22ND ST & S PANTANO RD,32.20662,-110.828408,,,,,,0
13341,22TQ*NW*,22nd St/Turquoise,E 22ND ST & S TURQUOISE VISTA,32.206633,-110.837175,,,,,,0
13344,22CA(NE),22nd St/Carnegie Dr,E 22ND ST & S CARNEGIE DR,32.20667,-110.845267,,,,,,0
13345,22FO(NW),22nd St/Fordham,E 22ND ST & FORDHAM,32.206658,-110.850646,,,,,,0
13346,22AM(NW),22nd St/Amherst,E 22ND ST & S AMHERST DR,32.206633,-110.855121,,,,,,0
13347,22AL(NW),22nd St/Alamo,E 22ND ST & S ALAMO AVE,32.207081,-110.862595,,,,,,0
13348,22CL(NW),22nd St/Colonia,E 22ND ST & S COLONIA AVE,32.207051,-110.867512,,,,,,0
13349,22VB(NE),22nd St/Van Buren,E 22ND ST & S VAN BUREN AVE,32.207086,-110.870264,,,,,,0
13352,22MA(NW),22nd St/Magnolia,E 22ND ST & S MAGNOLIA AVE,32.207059,-110.881415,,,,,,0
13354,22MV(NW),22nd St/Mountain View,E 22ND ST & S MOUNTAIN VIEW AVE,32.207089,-110.890093,,,,,,0
13355,22SW(NW),22nd St/Swan,E 22ND ST & S SWAN RD,32.207056,-110.892801,,,,,,0
13356,22BE(NW),22nd St/Belvedere,E 22ND ST & S BELVEDERE AVE,32.207141,-110.897391,,,,,,0
13357,22CO(NW),22nd St/Columbus,E 22ND ST & S BRYANT AVE,32.207085,-110.901521,,,,,,0
13358,22IR(NW),22nd St/Irving,E 22ND ST & S IRVING AVE,32.207123,-110.905476,,,,,,0
13359,22DO(NW),22nd St/Dodge,E 22ND ST & S DODGE AVE,32.20714,-110.913877,,,,,,0
13362,22CC(NW),22nd St/Country Club,E 22ND ST & S COUNTRY CLUB RD,32.207021,-110.927024,,,,,,0
13363,22TR(NW),22nd St/Treat,E 22ND ST & S TREAT AVE,32.206962,-110.93131,,,,,,0
13364,22TU(NW),22nd St/Tucson,E 22ND ST & S TUCSON BL,32.206996,-110.935357,,,,,,0
13367,22EU(NW),22nd St/Euclid,E 22ND ST & EUCLID,32.206934,-110.959653,,,,,,0
13369,226A(NW),22nd St/6th Av,W 22ND ST & S 6TH AVE,32.20693,-110.968775,,,,,,0
13370,22ME(NW),22nd St/Meyer Av,E 22ND ST & MEYER AV,32.206859,-110.972695,,,,,,0
13384,BRFS(IF),Broadway/Fellowship Square,E BROADWAY BLVD & N SARNOFF DR,32.221031,-110.818087,,,,,,0
13385,BRPA(NE),Broadway/Pantano(NE),E BROADWAY BLVD & N PANTANO RD,32.221032,-110.822874,,,,,,0
13386,BRPA(NW),Broadway/Pantano(NW),E BROADWAY BLVD & N PANTANO RD,32.221048,-110.824623,,,,,,0
13387,BRRO(WB),Broadway/River Oaks Apts,E BROADWAY BLVD,32.221126,-110.827576,,,,,,0
13388,BRPR(NW),Broadway/Prudence,E BROADWAY BLVD & N PRUDENCE RD,32.221142,-110.832821,,,,,,0
13389,BRMO(NW),Broadway/Montego,E BROADWAY BLVD & N KOLB RD,32.221126,-110.837706,,,,,,0
13390,BRKO(NW),Broadway/Kolb,E BROADWAY BL & N KOLB RD,32.221066,-110.84147,,,,,,0
13392,BRJE(NW),Broadway/Jessica,E BROADWAY BLVD & N JESSICA AVE,32.221127,-110.847606,,,,,,0
13393,BRNA(NW),Broadway/Natachee,E BROADWAY BLVD & N AVE NATACHEE,32.221127,-110.852104,,,,,,0
13395,TVIR(NW),Tanque Verde/Indian Ruins,E TANQUE VERDE RD & N INDIAN RUINS RD,32.250666,-110.84568,,,,,,0
13396,TVGR(NW),Tanque Verde/Grant,E TANQUE VERDE RD & E GRANT RD,32.247627,-110.851055,,,,,,0
13399,WILE(NW),Wilmot/Lee,N WILMOT RD & E 4TH ST,32.241756,-110.85809,,,,,,0
13401,WISP(SW),Wilmot/Speedway,N WILMOT RD & E SPEEDWAY BLVD,32.235344,-110.85813,,,,,,0
13402,WIRO(SW),Wilmot/Rosewood,N WILMOT RD & E ROSEWOOD ST,32.232116,-110.858113,,,,,,0
13403,WI5S(SW),Wilmot/5th St,N WILMOT RD & E 5TH ST,32.22849,-110.858132,,,,,,0
13404,WICA(NW),Wilmot/Carondelet,N WILMOT RD & E CARONDELET DR,32.226052,-110.858052,,,,,,0
13405,BRMC(WB),Broadway/McDonalds,E BROADWAY BLVD & N WILMOT RD,32.221641,-110.86184,,,,,,0
13408,BRLE(NW),Broadway/Leonora,E BROADWAY BLVD & N LEONORA AVE,32.221714,-110.872439,,,,,,0
13409,BRCR(NW),Broadway/Craycroft,E BROADWAY BLVD & N CRAYCROFT RD,32.22174,-110.875723,,,,,,0
13410,BRBV(NW),Broadway/Beverly,E BROADWAY BLVD & N BEVERLY AVE,32.221768,-110.879422,,,,,,0
13411,BRRO(NW),Broadway/Rosemont,E BROADWAY BLVD & N ROSEMONT BLVD,32.221831,-110.88422,,,,,,0
13415,BRBE(NE),Broadway/Belvedere,E BROADWAY BL & N BELVEDERE AV,32.221724,-110.896345,,,,,,0
13416,BRCO(NW),Broadway/Columbus,E BROADWAY BL & N COLUMBUS BL,32.221714,-110.901325,,,,,,0
13417,BRIR(NW),Broadway/Irving,E BROADWAY BLVD & N IRVING AVE,32.221704,-110.905526,,,,,,0
13419,BRDO(NW),Broadway/Dodge,E BROADWAY BLVD & N DODGE BLVD,32.221733,-110.914323,,,,,,0
13421,BRCC(NE),Broadway/Country Club,E BROADWAY BLVD & N COUNTRY CLUB RD,32.221659,-110.926331,,,,,,0
13422,BRTR(NW),Broadway/Treat,E BROADWAY BLVD & N TREAT AVE,32.221633,-110.931431,,,,,,0
13423,BRTU(NW),Broadway/Tucson,E BROADWAY BLVD & N TUCSON BLVD,32.221617,-110.935512,,,,,,0
13424,BRPL(NW),Broadway/Plumer,E BROADWAY BLVD & N PLUMER AVE,32.221548,-110.939757,,,,,,0
13427,BRHI(NE),Broadway/Highland,E BROADWAY BLVD & N HIGHLAND AVE,32.221454,-110.950591,,,,,,0
13428,BRSR(NW),Broadway/Santa Rita,E BROADWAY BL & S FREMONT AV,32.221421,-110.955338,,,,,,0
13429,BRPK(NW),Broadway/Park Av,E BROADWAY BLVD & N PARK AVE,32.2215,-110.957159,,,,,,0
13438,6A18(SW),6th Av/18th St,S 6TH AVE & E 18TH ST,32.211285,-110.968643,,,,,,0
13439,6A20(NW),6th Av/20th St,S 6TH AVE & E 20TH ST,32.209602,-110.968613,,,,,,0
13440,6A22(SW),6th Av/22nd St,S 6TH AVE & E 22ND ST,32.20595,-110.968602,,,,,,0
13441,6A27(SW),6th Av/27th St,S 6TH AV & E 27TH ST,32.201252,-110.968612,,,,,,0
13443,6A34(SW),6th Av/34th St,S 6TH AV & E 34TH ST,32.194431,-110.968445,,,,,,0
13444,6A37(NW),6th Av/37th St,S 6TH AVE & E OLD VAIL RD,32.191727,-110.968462,,,,,,0
13445,6A39(SW),6th Av/39th St,S 6TH AVE & E 39TH ST,32.189044,-110.968509,,,,,,0
13446,6A44(NW),6th Av/44th St,S 6TH AVE & W 44TH ST,32.185302,-110.968471,,,,,,0
13447,6AVE(SW),6th Av/Veterans,S 6TH AVE & W VETERANS BLVD,32.180878,-110.96845,,,,,,0
13461,6AVE(NE),6th Av/Veterans,S 6TH AVE & W VETERANS BLVD,32.181792,-110.9682,,,,,,0
13463,6A39(NE),6th Av/39th St,S 6TH AVE & E 39TH ST,32.189814,-110.968214,,,,,,0
13464,6A36(NE),6th Av/36th St,S 6TH AVE & E 36TH ST,32.192723,-110.968292,,,,,,0
13465,6A33(SE),6th Av/33rd St,S 6TH AV & E 33RD ST,32.195417,-110.968274,,,,,,0
13466,6A31(NE),6th Av/31st St,S 6TH AVE & E 31ST ST,32.197907,-110.968275,,,,,,0
13467,6A26(NE),6th Av/26th St,S 6TH AVE & E 26TH ST,32.202761,-110.968371,,,,,,0
13469,6A22(NE),6th Av/22nd St,S 6TH AVE,32.207276,-110.968394,,,,,,0
13470,6A20(SE),6th Av/20th St,S 6TH AVE & E 20TH ST,32.209752,-110.968363,,,,,,0
13472,6A17(NE),6th Av/17th St,S 6TH AVE & E 17TH ST,32.213638,-110.968453,,,,,,0
13474,6A12(SE),6th Av/12th St,S 6TH AVE & E 12TH ST,32.219596,-110.968502,,,,,,0
13481,BREU(SE),Broadway/Euclid,E BROADWAY BLVD & N EUCLID AVE,32.221297,-110.959201,,,,,,0
13483,BRHI(SE),Broadway/Highland,E BROADWAY BLVD & S HIGHLAND AVE,32.221289,-110.950649,,,,,,0
13484,BRCY(SE),Broadway/Cherry,E BROADWAY BLVD & N CHERRY AVE,32.221303,-110.947657,,,,,,0
13485,BRCA(SE),Broadway/Campbell,E BROADWAY BLVD & S KINO PW,32.221345,-110.943487,,,,,,0
13486,BRPL(SE),Broadway/Plumer,E BROADWAY BLVD & N PLUMER AVE,32.221366,-110.939084,,,,,,0
13487,BRTU(SE),Broadway/Tucson,E BROADWAY BLVD & N TUCSON BLVD,32.221397,-110.934766,,,,,,0
13488,BRTR(SE),Broadway/Treat,E BROADWAY BLVD & S TREAT AVE,32.221375,-110.930524,,,,,,0
13490,BRCC(SE),Broadway/Country Club,E BROADWAY BLVD & N CMO ESPANOL,32.221425,-110.926237,,,,,,0
13493,BRIR(SW),Broadway/Irving,E BROADWAY BLVD & S IRVING AVE,32.221444,-110.905615,,,,,,0
13494,BRCO(SE),Broadway/Columbus,E BROADWAY BLVD & N CATALINA AVE,32.221378,-110.900553,,,,,,0
13495,BRBE(SE),Broadway/Belvedere,E BROADWAY BLVD & N BELVEDERE AVE,32.221321,-110.895722,,,,,,0
13498,BRNI(SE),Broadway/Niven,E BROADWAY BLVD & S NIVEN AVE,32.221506,-110.886898,,,,,,0
13499,BRRO(SE),Broadway/Rosemont,E BROADWAY BLVD & N ROSEMONT BLVD,32.221483,-110.883275,,,,,,0
13500,BRWM(SE),Broadway/Williams,E BROADWAY BLVD & S WILLIAMS BLVD,32.221451,-110.879031,,,,,,0
13501,BRCR(SE),Broadway/Craycroft,E BROADWAY BLVD & S CRAYCROFT RD,32.221418,-110.874756,,,,,,0
13502,BRLE(SE),Broadway/Leonora,E BROADWAY BLVD & N LEONORA AVE,32.221412,-110.871631,,,,,,0
13503,BRCH(SE),Broadway/Chantilly,E BROADWAY BLVD & N CHANTILLY DR,32.221394,-110.868113,,,,,,0
13505,BRPP(SE),Broadway/Park Place,E BROADWAY BL & N INDIAN HOUSE RD,32.221428,-110.86518,,,,,,0
13506,BROC(EB),Broadway/O'Reilly Chevrolet,E BROADWAY BLVD & E BROADWAY BLVD,32.221346,-110.860576,,,,,,0
13508,WICA(NE),Wilmot/Carondelet,N WILMOT RD & E CARONDELET DR,32.225963,-110.8578,,,,,,0
13510,WI5S(NE),Wilmot/5th St,N WILMOT RD & E 4TH ST,32.229344,-110.857815,,,,,,0
13511,WIRO(SE),Wilmot/Rosewood,N WILMOT RD & E 4TH ST,32.232148,-110.857731,,,,,,0
13512,WISP(NE),Wilmot/Speedway,N WILMOT RD & E SPEEDWAY BLVD,32.23636,-110.857779,,,,,,0
13513,WIFA(NE),Wilmot/Fairmount,N WILMOT RD & E FAIRMOUNT ST,32.240129,-110.857694,,,,,,0
13517,TV65(EB),Tanque Verde/6534 E Tanque Verde,E TANQUE VERDE RD & N CMO SERNA,32.24557,-110.853537,,,,,,0
13519,TVKO(SE),Tanque Verde/Kolb,E TANQUE VERDE RD & E GRANT RD,32.248563,-110.848806,,,,,,0
13520,TVPR(SE),Tanque Verde/Cmo Principal,E TANQUE VERDE RD & E CAMINO PRINCIPAL,32.249718,-110.847058,,,,,,0
13522,TVIR(SE),Tanque Verde/Indian Ridge,E TANQUE VERDE RD & S IRVING AVE,32.25063,-110.843536,,,,,,0
13525,BRWI(SE),Broadway/Wilmot,E BROADWAY BLVD & S WILMOT RD,32.221117,-110.857494,,,,,,0
13526,BRMA(SE),Broadway/Mann,E BROADWAY BLVD & N JESSICA AVE,32.220873,-110.849108,,,,,,0
13527,BRJE(SE),Broadway/Jessica,E BROADWAY BLVD & N JESSICA AVE,32.220888,-110.84708,,,,,,0
13528,BRLA(SE),Broadway/Langley,E BROADWAY BLVD & S KOLB RD,32.22085,-110.843692,,,,,,0
13530,BRKO(SE),Broadway/Kolb,E BROADWAY BLVD & N KOLB RD,32.220937,-110.840524,,,,,,0
13531,BRMO(SE),Broadway/Montego,E BROADWAY BLVD & S MONTEGO DR,32.220878,-110.836748,,,,,,0
13532,BRPR(SE),Broadway/Prudence,E BROADWAY BLVD & S PRUDENCE RD,32.220812,-110.831865,,,,,,0
13533,BRRO(EB),Broadway/River Oaks Apts,,32.220837,-110.827358,,,,,,0
13555,TVLU(WB),Tanque Verde/Lutheran Church,E TANQUE VERDE RD,32.258221,-110.807137,,,,,,0
13556,TVWO(NW),Tanque Verde/Woodland,E TANQUE VERDE RD & E WOODLAND RD,32.258156,-110.81586,,,,,,0
13557,TVDH(NW),Tanque Verde/Dos Hombres,E TANQUE VERDE RD & N CAMINO PIO DECIMO,32.250905,-110.830996,,,,,,0
13559,GRTV(NE),Grant/Tanque Verde,E GRANT RD & E TANQUE VERDE RD,32.249074,-110.850464,,,,,,0
13560,GR64(WB),Grant/6400 E Grant,E GRANT RD & N WILMOT RD,32.250769,-110.855272,,,,,,0
13561,GRWI*NW*,Grant/Wilmot,E GRANT RD & N WILMOT RD,32.250782,-110.859323,,,,,,0
13564,GRSA(NW),Grant/Sahuara,E GRANT RD & N SAHUARA AVE,32.25077,-110.866842,,,,,,0
13565,GRRV(NW),Grant/Rainbow Vista,E GRANT RD & N RAINBOW VISTA DR,32.250726,-110.870939,,,,,,0
13567,GRBV(NW),Grant/Beverly,E GRANT RD & N BEVERLY AVE,32.250763,-110.880272,,,,,,0
13568,GRRO(NW),Grant/Rosemont,N ROSEMONT BLVD & E GRANT RD,32.250763,-110.88407,,,,,,0
13570,GRAR(NW),Grant/Arcadia,E GRANT RD & N ARCADIA AVE,32.250806,-110.888859,,,,,,0
13571,GRSW(NW),Grant/Swan,E GRANT RD & N SWAN RD,32.250735,-110.893052,,,,,,0
13572,GRBE(NW),Grant/Belvedere,E GRANT RD & N BELVEDERE AVE,32.250755,-110.897329,,,,,,0
13573,GRCO(NE),Grant/Columbus,E GRANT RD & N ORCHARD AVE,32.250743,-110.901063,,,,,,0
13574,GRWA(NW),Grant/Walnut,E GRANT RD & N SYCAMORE BLVD,32.250758,-110.905874,,,,,,0
13575,GRSA(NE),Grant/3767 E Grant SAAVI,E GRANT RD & N DODGE BLVD,32.250715,-110.912264,,,,,,0
13577,GRPV(NW),Grant/Palo Verde,E GRANT RD & N PALO VERDE AV,32.25063,-110.918696,,,,,,0
13578,GRED(NE),Grant/Edith,E GRANT RD & N EDITH BL,32.250554,-110.922345,,,,,,0
13580,GRDO(NE),Grant/Doolen School,E GRANT RD & N COUNTRY CLUB RD,32.250474,-110.925642,,,,,,0
13581,GRCC(NW),Grant/Country Club,E GRANT RD & N COUNTRY CLUB RD,32.250528,-110.927581,,,,,,0
13582,GRTR(NW),Grant/Treat,E GRANT RD & N FORGEUS AVE,32.250483,-110.931329,,,,,,0
13583,GRTU(NW),Grant/Tucson,E GRANT RD & N WILSON AVE,32.25041,-110.935776,,,,,,0
13584,GRPL(NW),Grant/Plumer,E GRANT RD & N PLUMER AV,32.250433,-110.939841,,,,,,0
13604,EUBR(NE),Euclid/Broadway,N EUCLID AVE & S EUCLID AVE,32.222027,-110.959372,,,,,,0
13616,GRNO(SE),Grant/Campbell@Norris,E GRANT RD & N NORRIS AV,32.250275,-110.942328,,,,,,0
13617,GRPL(SE),Grant/Plumer,E GRANT RD & N PLUMER AV,32.250276,-110.93932,,,,,,0
13618,GRTU(SE),Grant/Tucson,E GRANT RD & N TUCSON BLVD,32.250235,-110.935074,,,,,,0
13619,GRLO(SW),Grant/Loretta,E GRANT RD & N LORETTA DR,32.250233,-110.929805,,,,,,0
13620,GRCC(SE),Grant/Country Club,E GRANT RD & N COUNTRY CLUB RD,32.25029,-110.926508,,,,,,0
13621,GRRT(SW),Grant/Rita,E GRANT RD & N RITA AV,32.25041,-110.921312,,,,,,0
13622,GRPV(SE),Grant/Palo Verde,E GRANT RD & N PALO VERDE AV,32.250488,-110.917866,,,,,,0
13623,GRDO(SE),Grant/Dodge,E GRANT RD & N DODGE BLVD,32.250441,-110.913782,,,,,,0
13624,GRWA(SE),Grant/Walnut,E GRANT RD & N WALNUT AVE,32.250684,-110.905255,,,,,,0
13625,GRCO(SE),Grant/Columbus,E GRANT RD & N COLUMBUS BLVD,32.250519,-110.901076,,,,,,0
13626,GRBE(SE),Grant/Belvedere,E GRANT RD & N BELVEDERE AVE,32.250471,-110.89664,,,,,,0
13627,GRSW(SE),Grant/Swan,E GRANT RD & N SWAN RD,32.250523,-110.892318,,,,,,0
13628,GRAR(SE),Grant/Arcadia,E GRANT RD & N ARCADIA AVE,32.250477,-110.888223,,,,,,0
13630,GRRO(SE),Grant/Rosemont,E GRANT RD & N ROSEMONT BLVD,32.250538,-110.883987,,,,,,0
13631,GRBV(SE),Grant/Beverly,E GRANT RD & N BEVERLY AVE,32.250543,-110.879635,,,,,,0
13633,GRRV(SE),Grant/Rainbow Vista,E GRANT RD & N RAINBOW VISTA DR,32.250548,-110.87028,,,,,,0
13634,GRSA(SW),Grant/Sahuara,E GRANT RD & N SAHUARA AVE,32.250527,-110.866813,,,,,,0
13635,GRRI(SW),Grant/Ridgeway,E GRANT RD & N RIDGEWAY RD,32.250523,-110.864178,,,,,,0
13636,GRDG(EB),Grant/Devon Gables,E GRANT RD & UNNAMED,32.250556,-110.861106,,,,,,0
13637,GRWI(SE),Grant/Wilmot,E GRANT RD & N WILMOT RD,32.250517,-110.857503,,,,,,0
13652,TVPD(SE),Tanque Verde/Cmo Pio Decimo,E TANQUE VERDE RD & N CMO PIO DECIMO,32.250615,-110.829973,,,,,,0
13653,PAWR(NE),Pantano/Wrightstown,N PANTANO RD & E WRIGHTSTOWN RD,32.251808,-110.823585,,,,,,0
13655,TVWO(SE),Tanque Verde/Woodland,E TANQUE VERDE RD & E WOODLAND RD,32.257997,-110.815265,,,,,,0
13656,TVLU(SE),Tanque Verde/Lutheran Church,,32.257971,-110.807389,,,,,,0
13670,SMGD(NW),St Mary's/Granada,W SAINT MARYS RD & N GRANADA AVE,32.227713,-110.978264,,,,,,0
13671,SMFW(NW),St Mary's/I-10 Interstate,W SAINT MARYS RD & N FREEWAY,32.229581,-110.983768,,,,,,0
13672,SMCO(NW),St Mary's/Columbia,W SAINT MARYS RD & N COLUMBIA AVE,32.229838,-110.987844,,,,,,0
13674,SMCU(NW),St Mary's/Cuesta,W SAINT MARYS RD & N CUESTA AVE,32.229217,-110.995316,,,,,,0
13675,SMCH(NW),St Mary's/Cherokee,W SAINT MARYS RD & N CHEROKEE AVE,32.229018,-110.99763,,,,,,0
13676,SMSI(NW),St Mary's/Silverbell,W SAINT MARYS RD & N SILVERBELL RD,32.229059,-110.999678,,,,,,0
13677,SMSR(NW),St Mary's/San Rafael,W SAINT MARYS RD & N SAN RAFAEL AVE,32.228483,-111.002743,,,,,,0
13678,SMAN(NE),St Mary's/Anklam,W SAINT MARYS RD & W ANKLAM RD,32.226662,-111.005479,,,,,,0
13680,ANLC(SE),Anklam/La Cholla,W ANKLAM RD & N LA CHOLLA BLVD,32.224876,-111.011841,,,,,,0
13686,SMSI(SE),St Mary's/Silverbell,W SAINT MARYS RD & N SILVERBELL RD,32.228707,-110.998645,,,,,,0
13688,SMGR(SW),St Mary's/Grande,W SAINT MARYS RD & N GRANDE AVE,32.229486,-110.990415,,,,,,0
13689,SMFC(SE),St Mary's/Furr's Cafeterias,W SAINT MARYS RD & N COLUMBIA AVE,32.229644,-110.987172,,,,,,0
13690,SMFW(SW),St Mary's/I-10 Interstate,W SAINT MARYS RD & N COLUMBIA AVE,32.229392,-110.983896,,,,,,0
13692,GRAS*SW*,Granada/Ashbury Ln,N GRANADA AVE & N ASHBURY LN,32.224568,-110.977361,,,,,,0
13697,6S4A(SE),6th St/4th Av,E 6TH ST & N 4TH AVE,32.227662,-110.96528,,,,,,0
13698,6STH(EB),6th St/Tucson High School,E 6TH ST & N 1ST AVE,32.227642,-110.961546,,,,,,0
13707,6SCC(SW),6th St/Country Club,E 6TH ST & N COUNTRY CLUB RD,32.228175,-110.927319,,,,,,0
13708,5SJO*SE*,5th St/Jones,E 5TH ST & N JONES BLVD,32.228752,-110.919636,,,,,,0
13709,5SPV(SE),5th St/Palo Verde,E 5TH ST & N PALO VERDE AVE,32.228772,-110.917817,,,,,,0
13710,5SDO(SE),5th St/Dodge,E 5TH ST & N DODGE BLVD,32.228792,-110.913638,,,,,,0
13711,5SIR(SE),5th St/Irving,E 5TH ST & N COLUMBUS BLVD,32.228781,-110.905056,,,,,,0
13712,5SCO(SE),5th St/Columbus,E 5TH ST & N COLUMBUS BLVD,32.228761,-110.90047,,,,,,0
13713,5SBL(SE),5th St/Belvedere,E 5TH ST & N BELVEDERE AVE,32.228768,-110.896522,,,,,,0
13714,5SSW(SE),5th St/Swan,E 5TH ST & N SWAN RD,32.228737,-110.892112,,,,,,0
13715,5SAR(SW),5th St/Arcadia,E 5TH ST & N ARCADIA AVE,32.228749,-110.888891,,,,,,0
13716,5SRO(SE),5th St/Rosemont,E 5TH ST & N ROSEMONT BLVD,32.228856,-110.88356,,,,,,0
13732,STFL(NE),Stone/Flores,N STONE AVE & W FLORES ST,32.247779,-110.97182,,,,,,0
13733,STJA(SE),Stone/Jacinto,N STONE AVE & E MAC IVER PL,32.253871,-110.971868,,,,,,0
13735,STBL(NE),Stone/Blacklidge,N STONE AVE & E BLACKLIDGE DR,32.261749,-110.971937,,,,,,0
13736,STNA(SE),Stone/Navajo,N STONE AVE & E NAVAJO RD,32.266064,-110.971973,,,,,,0
13737,STYA(NE),Stone/Yavapai,N STONE AVE & E YAVAPAI RD,32.269312,-110.971989,,,,,,0
13739,STPT(NE),Stone/Pastime,N STONE AVE & E PASTIME RD,32.27605,-110.971988,,,,,,0
13741,STAR(SE),Stone/C Arizona,N STONE AVE & E LIMBERLOST DR,32.281492,-110.969969,,,,,,0
13746,STPT(SW),Stone/Pastime,N STONE AVE & W PASTIME RD,32.275185,-110.972296,,,,,,0
13747,STPR(SW),Stone/Prince,N STONE AVE & W WINDSOR ST,32.271651,-110.972244,,,,,,0
13748,STYA(SW),Stone/Yavapai,N STONE AVE & E YAVAPAI RD,32.269298,-110.972236,,,,,,0
13749,STFT(SW),Stone/Ft Lowell,N STONE AVE & W FORT LOWELL RD,32.264256,-110.97219,,,,,,0
13750,STBL(NW),Stone/Blacklidge,N STONE AVE & W BLACKLIDGE DR,32.26193,-110.97217,,,,,,0
13751,STGL(SW),Stone/Glenn,N STONE AVE & W GLENN ST,32.256817,-110.9721,,,,,,0
13752,STJA(SW),Stone/Jacinto,N STONE AVE & W JACINTO ST,32.253695,-110.972105,,,,,,0
13753,STFL(SW),Stone/Flores,N STONE AVE & W FLORES ST,32.246886,-110.972046,,,,,,0
13754,STLE(SW),Stone/Lester,N STONE AVE & W LESTER ST,32.24354,-110.972015,,,,,,0
13755,STDR(NW),Stone/Drachman,N STONE AVE & W DRACHMAN ST,32.239552,-110.971915,,,,,,0
13823,5SWI(NW),5th St/Wilmot,E 5TH ST & N WILMOT RD,32.229015,-110.858794,,,,,,0
13825,5SIH(NW),5th St/Indian House,E 5TH ST & N INDIAN HOUSE RD,32.22896,-110.863839,,,,,,0
13826,5SMC(NE),5th St/McKinley,E 5TH ST & N CHANTILLY DR,32.228999,-110.868583,,,,,,0
13827,5SVB(NW),5th St/Van Buren,E 5TH ST & N VAN BUREN AVE,32.229007,-110.871456,,,,,,0
13828,5SCR(NW),5th St/Craycroft,E 5TH ST & N CRAYCROFT RD,32.229038,-110.876067,,,,,,0
13830,5SBE(NW),5th St/Beverly,E 5TH ST & N BEVERLY AVE,32.229016,-110.880057,,,,,,0
13831,5SRO(NE),5th St/Rosemont,E 5TH ST & N ROSEMONT BLVD,32.229002,-110.883654,,,,,,0
13832,5SAR(NW),5th St/Arcadia,E 5TH ST & N ARCADIA AVE,32.228979,-110.888821,,,,,,0
13833,5SSW(NW),5th St/Swan,E 5TH ST & N SWAN RD,32.228936,-110.892833,,,,,,0
13834,5SBL(NW),5th St/Belvedere,E 5TH ST & N BELVEDERE AVE,32.228946,-110.897201,,,,,,0
13835,5SCA(NE),5th St/Catalina,E 5TH ST & N CATALINA AVE,32.22895,-110.898632,,,,,,0
13836,5SCO(NW),5th St/Columbus,E 5TH ST & N COLUMBUS BLVD,32.228966,-110.901635,,,,,,0
13837,5SIR(NW),5th St/Irving,E 5TH ST & N IRVING AV,32.228939,-110.905619,,,,,,0
13838,5SDO(NW),5th St/Dodge,E 5TH ST & N DODGE BLVD,32.228923,-110.913556,,,,,,0
13839,5SPV(NW),5th St/Palo Verde,E 5TH ST & N PALO VERDE AVE,32.228921,-110.918571,,,,,,0
13840,5SJO(NW),5th St/Jones,E 5TH ST & N JONES AVE,32.228935,-110.920135,,,,,,0
13856,GRRE(SE),Granada/Pso Redondo,N GRANADA AVE & E AJO WAY,32.223298,-110.976772,,,,,,0
13857,GR40(NB),Granada/405 Granada,N GRANADA AVE & W SAINT MARYS RD,32.226583,-110.97784,,,,,,0
13858,5SBE(SW),5th St/Beverly,E 5TH ST & N CLOVERLAND AVE,32.228868,-110.879842,,,,,,0
13860,5SCR(SE),5th St/Craycroft,E 5TH ST & N CRAYCROFT RD,32.228795,-110.874747,,,,,,0
13861,5SVB(SE),5th St/Van Buren,E 5TH ST & N VAN BUREN AV,32.228827,-110.870801,,,,,,0
13862,5SCH(SE),5th St/Chantilly,E 5TH ST & N CHANTILLY DR,32.228828,-110.867541,,,,,,0
13863,5SIH(SE),5th St/Indian House,E 5TH ST & N INDIAN HOUSE RD,32.228822,-110.863382,,,,,,0
13864,5SRU*SE*,5th St/Ruston,E 5TH ST & N RUSTON AVE,32.228826,-110.860497,,,,,,0
13868,CC5S(NE),Country Club/5th St,N COUNTRY CLUB RD & E 5TH ST,32.229196,-110.926624,,,,,,0
13869,CC3S(NE),Country Club/3rd St,N COUNTRY CLUB RD & E 3RD ST,32.232214,-110.92663,,,,,,0
13870,CCSP(NE),Country Club/Speedway,N COUNTRY CLUB RD & E SPEEDWAY BL,32.236343,-110.926677,,,,,,0
13871,CCAD(SE),Country Club/Adams,N COUNTRY CLUB RD & E ADAMS ST,32.240516,-110.926712,,,,,,0
13872,CCPI(NE),Country Club/Pima,N COUNTRY CLUB RD & E PIMA ST,32.243516,-110.926725,,,,,,0
13873,CCSE(NE),Country Club/Seneca,N COUNTRY CLUB RD & E SENECA ST,32.247436,-110.926757,,,,,,0
13874,CCFL(SE),Country Club/Flower,N COUNTRY CLUB RD & E FLOWER ST,32.253747,-110.926725,,,,,,0
13875,CCGL(NE),Country Club/Glenn,N COUNTRY CLUB RD & E GLENN ST,32.25833,-110.926719,,,,,,0
13876,CCBL(NE),Country Club/Blacklidge,N COUNTRY CLUB RD & E BLACKLIDGE DR,32.261589,-110.926692,,,,,,0
13877,CCFT(NE),Country Club/Ft Lowell,N COUNTRY CLUB RD & E FORT LOWELL RD,32.265337,-110.926696,,,,,,0
13878,CCKL(NE),Country Club/Kleindale,N COUNTRY CLUB RD & E KLEINDALE RD,32.269096,-110.926704,,,,,,0
13879,PRCC(NW),Prince/Country Club,E PRINCE RD & N COUNTRY CLUB RD,32.272344,-110.927535,,,,,,0
13880,PRCA(NE),Prince/Cactus,E PRINCE RD & N CACTUS BLVD,32.272359,-110.930713,,,,,,0
13881,PRTU(NW),Prince/Tucson,E PRINCE RD & N TUCSON BLVD,32.272354,-110.935718,,,,,,0
13882,PRWI(NW),Prince/Wilson,E PRINCE RD & N WILSON AVE,32.272329,-110.939862,,,,,,0
13883,PRCA(NW),Prince/Campbell,E PRINCE RD & N CAMPBELL AVE,32.272271,-110.944199,,,,,,0
13884,PRCH(NW),Prince/Cherry,E PRINCE RD & N CHERRY AVE,32.272313,-110.948634,,,,,,0
13886,PRPA(NW),Prince/Park,E PRINCE RD & N PARK AVE,32.272172,-110.957081,,,,,,0
13890,PR22(WB),Prince/226 W Prince,W PRINCE RD & N ORACLE RD,32.272093,-110.975588,,,,,,0
13894,PRFA(NW),Prince/Fairview,W PRINCE RD & N FAIRVIEW AVE,32.272128,-110.987121,,,,,,0
13895,PR11(WB),Prince/1120 W Prince,W PRINCE RD & N CRESCENT MANOR DR,32.272232,-110.991457,,,,,,0
13896,PRFW(NE),Prince/Flowing Wells(NE),W PRINCE RD & N CRESCENT MANOR DR,32.272184,-110.993025,,,,,,0
13900,ROPR(NE),Romero/Prince,N ROMERO RD & W PRINCE RD,32.272794,-111.003329,,,,,,0
13909,RUSU(NE),Ruthrauff/Sullinger,W RUTHRAUFF RD & N SULLINGER AVE,32.294412,-111.016072,,,,,,0
13910,RUKA(NE),Ruthrauff/Kain,W RUTHRAUFF RD & KAIN,32.294373,-111.019669,,,,,,0
13911,KACO(NE),Kain/C Comodo,N KAIN AVE & W C COMODO,32.296684,-111.020524,,,,,,0
13912,KAKI(NE),Kain/Kimberly Pl,N KAIN AVE & W KIMBERLEY PL,32.299473,-111.020466,,,,,,0
13913,CUPL(NW),Curtis/Plane,W CURTIS RD & N PLANE AVE,32.301546,-111.023033,,,,,,0
13915,DADI(SW),Davis/Diamond,N DAVIS AV & W DIAMOND ST,32.298091,-111.026998,,,,,,0
13917,RUPL(SE),Ruthrauff/Plane,W RUTHRAUFF RD & PLANE,32.294166,-111.022812,,,,,,0
13918,RUKA(SE),Ruthrauff/Kain,W RUTHRAUFF RD & N KAIN AVE,32.294213,-111.020002,,,,,,0
13919,RUSU(SW),Ruthrauff/Sullinger,W RUTHRAUFF RD & SULLINGER,32.294246,-111.016767,,,,,,0
13920,RULC(SE),Ruthrauff/La Cholla,W RUTHRAUFF RD & N LA CHOLLA BLVD,32.294182,-111.011246,,,,,,0
13930,PR11(EB),Prince/1103 W Prince,W PRINCE RD & E RIVER RD,32.272009,-110.991063,,,,,,0
13931,PRFA(SE),Prince/Fairview,W PRINCE RD & N FAIRVIEW AVE,32.271941,-110.986252,,,,,,0
13934,PR12(EB),Prince/120 W Prince,W PRINCE RD & N FLOWING WELLS RD,32.271881,-110.974488,,,,,,0
13936,PR21(EB),Prince/218 E Prince Rd,E PRINCE RD & N STONE AVE,32.271914,-110.968707,,,,,,0
13938,PRPA(SW),Prince/Park,E PRINCE RD & N TYNDALL AVE,32.27199,-110.957024,,,,,,0
13939,PRMO(SE),Prince/Mountain,E PRINCE RD & N MOUNTAIN AVE,32.272013,-110.951641,,,,,,0
13940,PRCH(SE),Prince/Cherry,E PRINCE RD & N CHERRY AVE,32.272099,-110.947608,,,,,,0
13941,PRCA(SE),Prince/Campbell,E PRINCE RD & N CAMPBELL AVE,32.272133,-110.943272,,,,,,0
13942,PRWI(SE),Prince/Wilson,E PRINCE RD & N JACKSON AVE,32.272164,-110.939263,,,,,,0
13943,PRTU(SE),Prince/Tucson,E PRINCE RD & N TUCSON BLVD,32.272232,-110.934831,,,,,,0
13944,PRTR(SE),Prince/Treat,E PRINCE RD & N TREAT AVE,32.272183,-110.9307,,,,,,0
13945,PRCC(SW),Prince/Country Club,E PRINCE RD & N COUNTRY CLUB RD,32.27221,-110.927073,,,,,,0
13946,CCKL(SW),Country Club/Kleindale,N COUNTRY CLUB RD & E KLEINDALE RD,32.268475,-110.926832,,,,,,0
13947,CCFT(SW),Country Club/Ft Lowell,N COUNTRY CLUB RD & E FORT LOWELL RD,32.26432,-110.926902,,,,,,0
13948,CCBL(SW),Country Club/Blacklidge,N COUNTRY CLUB RD & E BLACKLIDGE DR,32.261048,-110.926935,,,,,,0
13949,CCGL(SW),Country Club/Glenn,N COUNTRY CLUB RD & E GLENN ST,32.25731,-110.926991,,,,,,0
13950,CCFL(SW),Country Club/Flower,N COUNTRY CLUB RD & E FLOWER ST,32.253726,-110.926943,,,,,,0
13951,CCSE(SW),Country Club/Seneca,N COUNTRY CLUB RD & E SENECA ST,32.246641,-110.926897,,,,,,0
13952,CCEL(SW),Country Club/Elm,N COUNTRY CLUB RD & E ELM ST,32.242869,-110.926882,,,,,,0
13953,CCDR(SW),Country Club/Drachman,N COUNTRY CLUB RD & E DRACHMAN ST,32.239444,-110.926876,,,,,,0
13954,CCSP(SW),Country Club/Speedway,N COUNTRY CLUB RD & E SPEEDWAY BLVD,32.235543,-110.926959,,,,,,0
13955,CC3S(NW),Country Club/3rd St,N COUNTRY CLUB RD & E 3RD ST,32.231939,-110.926836,,,,,,0
13956,CC5S(SW),Country Club/5th St,N COUNTRY CLUB RD & E 6TH ST,32.228251,-110.926785,,,,,,0
13965,CC23(SW),Country Club/23rd St,S COUNTRY CLUB RD & E 23RD ST,32.206023,-110.926809,,,,,,0
13966,CC27(SW),Country Club/27th St,S COUNTRY CLUB RD & E 27TH ST,32.20255,-110.926717,,,,,,0
13967,CC30(NW),Country Club/30th St,S COUNTRY CLUB RD & E 30TH ST,32.20045,-110.926706,,,,,,0
13969,SIHO(SE),Silverlake/Howard Strav,E SILVERLAKE RD & S RANDOLPH PW,32.199498,-110.922485,,,,,,0
13970,SIKE(SE),Silverlake/Kelvin,E SILVERLAKE RD & S HOLLY STRAV,32.199514,-110.919928,,,,,,0
13974,NOIR(SW),Nogales Hy/Irvington,S NOGALES HWY & E IRVINGTON RD,32.162814,-110.968225,,,,,,0
13979,6ADE(SW),6th Av/Delta,S 6TH AVE & W DELTA ST,32.144681,-110.968052,,,,,,0
13980,6ABI(SW),6th Av/Bilby,S 6TH AVE & E BILBY RD,32.140962,-110.968083,,,,,,0
13981,6AVL(SW),6th Av/Valeska,S 6TH AV & E VALESKA RD,32.137155,-110.968066,,,,,,0
13982,VAFI(NW),Valencia/Fiesta,W VALENCIA RD & S FIESTA AVE,32.134099,-110.972657,,,,,,0
13983,VA12(NW),Valencia/12th Av,W VALENCIA RD & S 12TH AVE,32.134066,-110.978654,,,,,,0
13984,VAMM(NE),Valencia/Midvale Medical Ctr,W VALENCIA RD & S COMMERCE CT,32.133891,-110.994793,,,,,,0
13987,VAMI(NW),Valencia/Mission,W VALENCIA RD & S MISSION RD,32.133945,-111.016674,,,,,,0
13988,VAWE(NW),Valencia/Westover (old Cir. K),W VALENCIA RD & S WESTOVER AVE,32.133916,-111.02091,,,,,,0
13989,VAHI(NW),Valencia/Hildreth,W VALENCIA RD & S WESTOVER AVE,32.134008,-111.025113,,,,,,0
13996,CACH(SW),Cardinal/Christopher Dr,S CARDINAL AVE & W CHRISTOPHER DR,32.124141,-111.029046,,,,,,0
14000,LRTI(NW),Los Reales/Cmo de la Tierra,W LOS REALES RD & S CMO DE LA TIERRA,32.119179,-111.037994,,,,,,0
14001,LRBO(NW),Los Reales/Bolingbroke,W LOS REALES RD & S BOLINGBROKE AVE,32.119215,-111.043614,,,,,,0
14002,TEBE(NE),Tetakusim Rd/Beehive Av,W TETAKUSIM RD & S SORREL LN,32.115635,-111.047192,,,,,,0
14017,PK22(SE),Park/22nd St(SE),S PARK AV & E 22ND ST,32.206027,-110.956118,,,,,,0
14018,PK22(SW),Park/22nd St,S PARK AV & E 22ND ST,32.206001,-110.956307,,,,,,0
14031,CAGR(NE),Campbell Av/Grant@Water,N CAMPBELL AVE & E WATER ST,32.25164,-110.943865,,,,,,0
14053,36CA(NW),36th St/Campbell(NW),E 36TH ST & S CAMPBELL AVE,32.192495,-110.944112,,,,,,0
14056,WITI(NW),Wilmot/Timrod,S WILMOT RD & E TIMROD ST,32.216218,-110.858115,,,,,,0
14058,WIEL(SW),Wilmot/Eli,S WILMOT RD & E ELI DR,32.21219,-110.858124,,,,,,0
14067,STPO(SW),Stella/C Polar,E STELLA RD & S C POLAR,32.184628,-110.854065,,,,,,0
14077,STCS(SW),Stella/Cmo Seco,E STELLA RD & S STEARN LAKE DR,32.184404,-110.807374,,,,,,0
14084,ESMA(NW),Escalante/Manitoba,E ESCALANTE RD & S MANITOBA AVE,32.177477,-110.819269,,,,,,0
14096,ESMA(SE),Escalante/Manitoba,E ESCALANTE RD & S MANITOBA AVE,32.177261,-110.818983,,,,,,0
14097,ESLB*SW*,Escalante/Le Breque,E ESCALANTE RD & S MANITOBA AVE,32.177238,-110.816564,,,,,,0
14101,STCS(NW),Stella/Cmo Seco,E STELLA RD & S CMO SECO,32.184483,-110.807437,,,,,,0
14112,STPO(NE),Stella/C Polar,E STELLA RD & S C POLAR,32.184753,-110.853512,,,,,,0
14115,WIGL(NE),Wilmot/Golf Links,S WILMOT RD & E GOLF LINKS RD,32.192671,-110.857843,,,,,,0
14116,WIMA(NE),Wilmot/C Marte,S WILMOT RD & E CALLE MARTE,32.196254,-110.85776,,,,,,0
14117,WIHE(SE),Wilmot/C Herculo,S WILMOT RD & E CALLE HERCULO,32.199994,-110.857773,,,,,,0
14118,WIBE(NE),Wilmot/Bellatrix,S WILMOT RD & E CALLE BELLATRIX,32.203583,-110.857873,,,,,,0
14120,WICO(NE),Wilmot/Colgate,S WILMOT RD & E 22ND ST,32.210977,-110.857927,,,,,,0
14124,WISC(NE),Wilmot/Scarlett,S WILMOT RD & E SCARLETT ST,32.217571,-110.857905,,,,,,0
14128,STME(SE),Stella/Mead,E STELLA RD & S MEAD AV,32.184445,-110.820079,,,,,,0
14129,ROPA(NW),Roger/Park,E ROGER RD & N PARK AV,32.279456,-110.956974,,,,,,0
14130,RO1A(NW),Roger/1st Av(NW),E ROGER RD & N 1ST AVE,32.279406,-110.96213,,,,,,0
14136,HA22(NE),Harrison/22nd St,S HARRISON RD & E 22ND ST,32.206554,-110.789708,,,,,,0
14137,HATH(NW),Harrison/Thomas,S HARRISON RD & S THOMAS DR,32.195501,-110.78985,,,,,,0
14138,HARO(NE),Harrison/Rosewood,N HARRISON RD & E ROSEWOOD ST,32.232146,-110.789696,,,,,,0
14143,HABR(SW),Harrison/Broadway,S HARRISON RD & E BROADWAY BLVD,32.220103,-110.789976,,,,,,0
14145,HA29(SW),Harrison/29th St,S HARRISON RD & E 29TH ST,32.198708,-110.78988,,,,,,0
14155,THIN(SW),Thornydale/Ina Rd,N THORNYDALE RD & W INA RD,32.336822,-111.04703,,,,,,0
14156,INOR(NW),Ina/Oracle,W INA RD & N ORACLE RD,32.337356,-110.978082,,,,,,0
14179,STGR(NE),Stone/Grant,N STONE AVE & E ALTURAS ST,32.250769,-110.971823,,,,,,0
14189,STGR(SW),Stone/Grant,N STONE AVE & W GRANT RD,32.250096,-110.972014,,,,,,0
14196,SISM(SW),Silverbell/St Mary's,N SILVERBELL RD & W SAINT MARYS RD,32.227715,-110.998861,,,,,,0
14197,COGR(SE),Congress/Grande,W CONGRESS ST & S GRANDE AVE,32.220045,-110.987628,,,,,,0
14198,FRCU(NE),Fresno/Cuesta,W FRESNO ST & N CUESTA AV,32.224541,-110.994216,,,,,,0
14200,RTC(016),Downtown Ronstadt Center,W RONSTADT TRANSIT CENTER DR & E PENNINGTON ST,32.222751,-110.968116,,,,,,0
14201,RTC(012),Downtown Ronstadt Center,W RONSTADT TRANSIT CENTER DR & E PENNINGTON ST,32.222823,-110.968225,,,,,,0
14203,RTC(008),Downtown Ronstadt Center,W RONSTADT TRANSIT CENTER DR,32.222981,-110.968199,,,,,,0
14204,RTC(018),Downtown Ronstadt Center,W RONSTADT TRANSIT CENTER DR,32.222926,-110.968114,,,,,,0
14205,RTC(010),Downtown Ronstadt Center,W RONSTADT TRANSIT CENTER DR & E GOLF LINKS RD,32.222661,-110.968196,,,,,,0
14206,RTC(019),Downtown Ronstadt Center,W RONSTADT TRANSIT CENTER DR,32.222403,-110.9681,,,,,,0
14210,RTC(002),Downtown Ronstadt Center,W RONSTADT TRANSIT CENTER DR,32.222938,-110.967955,,,,,,0
14211,RTC(03W),Downtown Ronstadt Center,W RONSTADT TRANSIT CENTER DR & E PENNINGTON ST,32.223165,-110.968235,,,,,,0
14212,RTC(03E),Downtown Ronstadt Center,W RONSTADT TRANSIT CENTER DR & E PENNINGTON ST,32.223083,-110.968123,,,,,,0
14215,FWMO(SW),Flowing Wells/Mohave,N FLOWING WELLS RD & W MOHAVE RD,32.267893,-110.99519,,,,,,0
14216,RTC(022),Downtown Ronstadt Center,W RONSTADT TRANSIT CENTER DR,32.223252,-110.968109,,,,,,0
14217,RTC(023),Downtown Ronstadt Center,W RONSTADT TRANSIT CENTER DR & E PENNINGTON ST,32.222659,-110.968194,,,,,,0
14218,LTC(023),Laos Transit Center,S ROY LAOS WAY,32.162892,-110.97125,,,,,,0
14219,LTC(026),Laos Transit Center,S ROY LAOS WAY & S 3RD AVE,32.161933,-110.9714,,,,,,0
14220,LTC(050),Laos Transit Center,S ROY LAOS WAY,32.16257,-110.97135,,,,,,0
14221,LTC(027),Laos Transit Center,S ROY LAOS WAY,32.162392,-110.971565,,,,,,0
14223,LTC(18a),Laos Transit Center,S ROY LAOS WAY,32.162796,-110.971539,,,,,,0
14224,LTC(011),Laos Transit Center,S ROY LAOS WAY,32.162569,-110.971222,,,,,,0
14225,LTC(012),Laos Transit Center,S ROY LAOS WAY,32.162165,-110.971248,,,,,,0
14227,LTC(25N),Laos Transit Center,S ROY LAOS WAY,32.162267,-110.971556,,,,,,0
14229,LTC(024),Laos Transit Center,S ROY LAOS WAY,32.162713,-110.971231,,,,,,0
14230,LTC(029),Laos Transit Center,S ROY LAOS WAY & E PENNINGTON ST,32.162409,-110.971416,,,,,,0
14235,TTC(015),Tohono Transit Center,N TOHONO TRANSIT CENTER DR & E PENNINGTON ST,32.288938,-110.968145,,,,,,0
14236,TTC(006),Tohono Transit Center,N TOHONO TRANSIT CENTER DR & E PENNINGTON ST,32.288957,-110.968337,,,,,,0
14237,TTC(010),Tohono Transit Center,N TOHONO TRANSIT CENTER DR & E PENNINGTON ST,32.28871,-110.968863,,,,,,0
14240,TTC(019),Tohono Transit Center,N TOHONO TRANSIT CENTER DR & E PENNINGTON ST,32.288516,-110.968118,,,,,,0
14241,TTC(16S),Tohono Transit Center,N TOHONO TRANSIT CENTER DR & E PENNINGTON ST,32.288519,-110.968492,,,,,,0
14242,TTC(034),Tohono Transit Center,N TOHONO TRANSIT CENTER DR & E PENNINGTON ST,32.288526,-110.968321,,,,,,0
14284,GLWI(NW),Golf Links/Wilmot,E GOLF LINKS RD & S CALLE CORDOVA,32.192275,-110.85869,,,,,,0
14293,IR9A(NW),Irvington/9th Av,W IRVINGTON RD & S 9TH AV,32.163297,-110.972043,,,,,,0
14294,IRLA(SE),Irvington/Laos Transit Center,W IRVINGTON RD & S ROY LAOS WAY,32.163147,-110.970324,,,,,,0
14295,PKIR(SW),Park/Irvington,S PARK AVE & E C NEVADA,32.162877,-110.956312,,,,,,0
14299,BIPK(SE),Bilby/Park Av,E BILBY RD & S JEANETTE BLVD,32.14126,-110.955222,,,,,,0
14307,CRBR(NE),Craycroft/Broadway,N CRAYCROFT RD & E BROADWAY BLVD,32.221908,-110.875032,,,,,,0
14310,CRBU(NE),Craycroft/Burns,N CRAYCROFT DR & E BURNS ST,32.225,-110.875211,,,,,,0
14311,CRCO(NE),Craycroft/Copper,N CRAYCROFT RD & E COPPER ST,32.254667,-110.875156,,,,,,0
14312,ORMA(SE),Oracle/Magee,N ORACLE RD & W MAGEE RD,32.350899,-110.974952,,,,,,0
14313,PVHE(SW),Palo Verde/Hemisphere,S PALO VERDE RD & E HEMISPHERE LOOP,32.138877,-110.917816,,,,,,0
14315,PABR(NE),Pantano/Broadway,N PANTANO RD & E BROADWAY BLVD,32.221525,-110.823742,,,,,,0
14320,GRCA(NW),Grant/Campbell,E GRANT RD & N MARTIN AVE,32.250298,-110.944464,,,,,,0
14324,CAIR(SW),Campbell Av/Irvington,S CAMPBELL AV & E IRVINGTON RD,32.162774,-110.943472,,,,,,0
14336,BRAL(NW),Broadway/Alvernon,E BROADWAY BLVD & N ALVERNON WAY,32.221654,-110.91021,,,,,,0
14344,29CR(NW),29th St/Craycroft,E 29TH ST & S CRAYCROFT RD,32.199765,-110.876009,,,,,,0
14345,PR41(EB),Prince/414 E Prince,E PRINCE RD & N GERONIMO AVE,32.271956,-110.964728,,,,,,0
14349,NE6A(NW),Nebraska/6th Av,W NEBRASKA ST & S 6TH AV,32.156025,-110.968302,,,,,,0
14351,MPBU(NE),Midvale Park/Bufkin,S MIDVALE PARK RD & S BUFKIN DR,32.140236,-110.99886,,,,,,0
14353,MPWA(NE),Midvale Park/Walmart,S MIDVALE PARK RD & S COMMERCE CT,32.136941,-110.998805,,,,,,0
14354,MPHO(NE),Midvale Park/Houchin,S MIDVALE PARK RD & W HOUCHIN WAY,32.144086,-110.998846,,,,,,0
14361,PACC(NB),Pantano/Canyon Creek Apts,N PANTANO RD & E 19TH PL,32.224964,-110.823706,,,,,,0
14364,EU9S(SW),Euclid/9th St,N EUCLID AVE & E 9TH ST,32.223654,-110.959526,,,,,,0
14365,IN3220WB,Ina/3220 W Ina Road WB,W INA RD & N SHANNON RD,32.337523,-111.034777,,,,,,0
14366,ORRU(NE),Oracle/Rudasill,N ORACLE RD & W RUDASILL RD,32.316203,-110.976148,,,,,,0
14367,STMN(NW),Stella/Manitoba,E STELLA RD & S MANITOBA AV,32.184547,-110.818564,,,,,,0
14368,EUDR(NE),Euclid/Drachman,N EUCLID AVE & E DRACHMAN ST,32.239787,-110.959426,,,,,,0
14369,36PL(NE),36th St/Plumer,E 36TH ST & S PLUMER AV,32.192478,-110.938558,,,,,,0
14370,PK19(NE),Park/19th St,S PARK AV & E 19TH ST,32.211181,-110.956162,,,,,,0
14372,SPRK(SE),Speedway/Rook,E SPEEDWAY BLVD & N ROOK AVE,32.235963,-110.859927,,,,,,0
14373,PVMI(SE),Palo Verde/Milton,S PALO VERDE RD & E MILTON RD,32.14642,-110.917671,,,,,,0
14376,PR54(EB),Prince/541 W Prince,W PRINCE RD & N FLOWING WELLS RD,32.271899,-110.981231,,,,,,0
14377,VOEC(SW),SS/Valle del Oro Rd/El Conquistador,N VALLE DEL ORO RD & E EL CONQUISTADOR WAY,32.387871,-110.966678,,,,,,0
14380,DRTU(SE),Drexel/Tucson,E DREXEL RD & S TUCSON BL,32.148652,-110.934178,,,,,,0
14381,DRTU(NW),Drexel/Tucson,E DREXEL RD & S TUCSON BL,32.148799,-110.9357,,,,,,0
14386,SPPR(NW),Speedway/Prudence,E SPEEDWAY BLVD & N PRUDENCE RD,32.235643,-110.832769,,,,,,0
14387,BH35(EB),Benson Hy/3562 E Benson,E BENSON HWY & E DREXEL RD,32.150565,-110.915467,,,,,,0
14388,VAAL(NE),Valencia/Alvernon,E VALENCIA RD & S COLUMBUS BLVD,32.134437,-110.904355,,,,,,0
14415,CCRV(SW),Country Club/Rickey Vista,S COUNTRY CLUB RD & E RICKEY VISTA,32.18895,-110.926566,,,,,,0
14417,GLKO(OS),Golf Links/Kolb,E GOLF LINKS RD & S UNKNOWN,32.1919,-110.83907,,,,,,0
14419,BOAP(IN),Bombardier/Aeropark Blvd,E AERO PARK PARKING LOOP & S RAYTHEON WAY,32.113844,-110.953801,,,,,,0
14421,SPCO(SE),Speedway/Columbus,E SPEEDWAY BL & N COLUMBUS BL,32.236066,-110.900913,,,,,,0
14423,AVAN(NE),Alvernon/Antrim Loop,S ALVERNON WAY & E TRANSCON WAY,32.138259,-110.909228,,,,,,0
14424,AVWR(NE),Alvernon/White River,S ALVERNON WY & E WHITE RIVER DR,32.142855,-110.909182,,,,,,0
14425,DRRE(SE),Drexel/Rex Strav,E DREXEL RD & S REX SV,32.14887,-110.907425,,,,,,0
14435,IRCA(SE),Irvington/Campbell,E IRVINGTON RD & S CAMPBELL AVE,32.163211,-110.942739,,,,,,0
14436,DROT(SE),Drexel/Oak Tree,W DREXEL RD & S OAK TREE DR,32.148344,-111.006336,,,,,,0
14437,DRWC(SW),Drexel/Wood Crest Dr,W DREXEL RD & S WOOD CREST DR,32.148288,-111.000501,,,,,,0
14443,VABE(NW),Valencia/Benson Hwy,E VALENCIA RD & E MOSSMAN RD,32.134437,-110.893064,,,,,,0
14444,PRGE(NW),Prince/Geronimo,E PRINCE RD & N FONTANA AVE,32.272163,-110.966216,,,,,,0
14452,BRPA(SE),Broadway/Pantano,E BROADWAY BLVD & N PANTANO RD,32.220875,-110.823303,,,,,,0
14455,PAGL(NE),Pantano/Golf Links,S PANTANO RD & E GOLF LINKS RD,32.192446,-110.823766,,,,,,0
14456,PAGL(SW),Pantano/Golf Links,S PANTANO RD & E GOLF LINKS RD,32.191478,-110.824056,,,,,,0
14457,SMME(NW),St Mary's/Melrose Av,W SAINT MARYS RD & N MELROSE AVE,32.229446,-110.9924,,,,,,0
14482,SPPV(NE),Speedway/Palo Verde,E SPEEDWAY BLVD & N PALO VERDE BLVD,32.236276,-110.917831,,,,,,0
14483,RILC(SE),River/La Canada,W RIVER RD & W ALLEGHENY DR,32.297387,-110.99471,,,,,,0
14484,LCRV(SW),La Canada/River Rd,N LA CANADA DR & W RIVER RD,32.29713,-110.995352,,,,,,0
14486,WERO(NW),Wetmore/Romero,W WETMORE RD & N ROMERO RD,32.286931,-111.004186,,,,,,0
14490,3A29(NW),3rd Av/29th St,S 3RD AVE & E 29TH ST,32.199779,-110.963872,,,,,,0
14493,WIDA(NE),Wilmot/David Dr,S WILMOT RD & E DAVID DR,32.187184,-110.857822,,,,,,0
14494,STRI(SE),Stone/River,N STONE AVE & E RIVER RD,32.292303,-110.970289,,,,,,0
14495,IRMI(SE),Irvington/Mission,W IRVINGTON RD & S MISSION RD,32.159289,-111.006495,,,,,,0
14499,TVSC(SE),Tanque Verde/Sabino Canyon,E TANQUE VERDE RD & N SABINO CANYON RD,32.250716,-110.840516,,,,,,0
14501,SWCL(SW),Swan/Camp Lowell,N SWAN RD & E CAMP LOWELL DR,32.264601,-110.892603,,,,,,0
14503,SIIH(SW),Silverbell/Ironwood Hill,N SILVERBELL RD & W IRONWOOD RIDGE DR,32.250172,-111.013433,,,,,,0
14506,SISP(NE),Silverbell/Speedway(NE),N SILVERBELL RD & W SPEEDWAY BLVD,32.236012,-111.004274,,,,,,0
14507,SIAL(IF),Silverbell/Albertson,N SILVERBELL RD & W RILEY CIR,32.23879,-111.005655,,,,,,0
14508,SICP(NE),Silverbell/C Campana de Plata,N SILVERBELL RD & W C CAMPANA DE PLA,32.241369,-111.007267,,,,,,0
14511,SILE(NW),Silverbell/Lester,N SILVERBELL RD & W LESTER ST,32.24366,-111.009094,,,,,,0
14512,SICP(SW),Silverbell/C Campana de Plata,N SILVERBELL RD & W CALLE CAMPANA DE PLA,32.240536,-111.007128,,,,,,0
14513,SIAL(SW),Silverbell/Albertson,N SILVERBELL RD & W CALLE CAMPANA DE PLA,32.237701,-111.005393,,,,,,0
14516,CO6A(SE),SL/Congress/6th Av,E CONGRESS ST & N 6TH AVE,32.221964,-110.968364,,,,,,0
14518,OELR(SW),Cmo de Oeste/Los Reales,S CAMINO DE OESTE & W LOS REALES RD,32.116762,-111.063233,,,,,,0
14523,GLHA(NW),Golf Links/Harrison,E GOLF LINKS RD & S HARRISON RD,32.191978,-110.790269,,,,,,0
14525,IRCC(NW),Irvington/Country Club,E IRVINGTON RD & S COUNTRY CLUB RD,32.16331,-110.927301,,,,,,0
14526,IRTR(NW),Irvington/Treat,E IRVINGTON RD & S TREAT AV,32.163303,-110.930764,,,,,,0
14527,IRGR(NW),Irvington/Greenway,E IRVINGTON RD & S GREENWAY DR,32.163322,-110.940418,,,,,,0
14529,IRTR(SE),Irvington/Treat,E IRVINGTON RD & S TREAT AVE,32.163103,-110.930156,,,,,,0
14530,CCIR(NE),Country Club/Irvington,S COUNTRY CLUB RD & E MISSOURI ST,32.163651,-110.926182,,,,,,0
14531,HAPT(NE),Harrison/Palm Tree,S HARRISON RD & E PALM TREE DR,32.20169,-110.789571,,,,,,0
14533,22HA(NW),22nd St/Harrison,E 22ND ST & S HARRISON RD,32.20647,-110.790264,,,,,,0
14534,22BR(NW),22nd St/Brown,E 22ND ST & E C MARIA,32.206388,-110.795301,,,,,,0
14536,22CS(NW),22nd St/Cmo Seco,E 22ND ST & S CMO SECO,32.206513,-110.80721,,,,,,0
14537,22CS(SE),22nd St/Cmo Seco,E 22ND ST & N CMO SECO,32.206231,-110.806376,,,,,,0
14538,22OP(SE),22nd St/Oak Park,E 22ND ST & S GOLLOB RD,32.206244,-110.799361,,,,,,0
14539,22BR(SE),22nd St/Brown,E 22ND ST & S BROWN AVE,32.206253,-110.794792,,,,,,0
14540,HA22(SW),Harrison/22nd St,S HARRISON RD & E 22ND ST,32.205706,-110.78992,,,,,,0
14541,HAPP(NW),Harrison/Pikes Peak,S HARRISON RD & E PIKES PEAK DR,32.20347,-110.789894,,,,,,0
14542,HAPT(SW),Harrison/Palm Tree,S HARRISON RD & E PALM TREE DR,32.201107,-110.789886,,,,,,0
14544,BRSA(SW),Broadway/Sarnoff,E BROADWAY BLVD & N SARNOFF DR,32.220806,-110.817013,,,,,,0
14545,BROS(SE),Broadway/Old Spanish Trail,E BROADWAY BLVD & E OLD SPANISH TRL,32.220865,-110.811936,,,,,,0
14546,BRCS(SE),Broadway/Cmo Seco,E BROADWAY BLVD & N CAMINO SECO,32.220839,-110.806349,,,,,,0
14550,HABR(NE),Harrison/Broadway,N HARRISON RD & E BROADWAY BL,32.221156,-110.789623,,,,,,0
14551,HAHP(NE),Harrison/Harrison Park Apts,N HARRISON RD & E GOLDEN WEST ST,32.225211,-110.789704,,,,,,0
14552,HA5S(NE),Harrison/5th St,N HARRISON RD & E 5TH ST,32.228449,-110.789686,,,,,,0
14553,HARO(SW),Harrison/Rosewood,N HARRISON RD & E ROSEWOOD ST,32.231555,-110.789777,,,,,,0
14554,HAHP(SW),Harrison/Harrison Park Apts,N HARRISON RD & E SHILOH ST,32.224942,-110.789792,,,,,,0
14555,BRHA(NW),Broadway/Harrison,E BROADWAY BLVD & N HARRISON RD,32.221036,-110.790998,,,,,,0
14558,BRCS(NW),Broadway/Cmo Seco,E BROADWAY BLVD & N CAMINO SECO,32.221009,-110.807296,,,,,,0
14559,BROS*NE*,Broadway/Old Spanish Trail,E BROADWAY BLVD & E OLD SPANISH TRL,32.221022,-110.811422,,,,,,0
14560,FWDE(NE),Flowing Wells/Delano,N FLOWING WELLS RD & W DELANO DR,32.264051,-110.994934,,,,,,0
14563,FWRO(SE),Flowing Wells/Roger,N FLOWING WELLS RD & W ROGER RD,32.279126,-110.994881,,,,,,0
14565,FWTA(NE),Flowing Wells/Talisman,N FLOWING WELLS RD & W TALISMAN ST,32.28415,-110.994933,,,,,,0
14567,FWWA(NE),Flowing Wells/Wabash,N FLOWING WELLS RD & W ALLEGHENY DR,32.291002,-110.995005,,,,,,0
14568,LCED(NE),La Canada/Edgewater,N LA CANADA DR & W EDGEWATER DR,32.295739,-110.995064,,,,,,0
14569,RIHA(SE),River/Hansen,W RIVER RD & N HANSEN AV,32.297464,-110.990449,,,,,,0
14570,RIOR(NW),River/Oracle,W RIVER RD & N ORACLE RD,32.297468,-110.978906,,,,,,0
14571,RIHA(NW),River/Hansen,W RIVER RD & N HANSEN AV,32.297626,-110.990447,,,,,,0
14572,LCED(NW),La Canada/Edgewater,N LA CANADA DR & W EDGEWATER DR,32.295794,-110.995244,,,,,,0
14573,FWWA(SW),Flowing Wells/Wabash,N FLOWING WELLS RD & W WABASH ST,32.290582,-110.995178,,,,,,0
14574,FWWE(SW),Flowing Wells/Wetmore,N FLOWING WELLS RD & W WETMORE RD,32.286325,-110.995145,,,,,,0
14575,FWTA(SW),Flowing Wells/Talisman,N FLOWING WELLS RD & W TALISMAN ST,32.283718,-110.995107,,,,,,0
14576,PAES(NE),Pantano/Escalante,S PANTANO RD & N CHAPEL AVE,32.177701,-110.823783,,,,,,0
14577,PAVI(NE),Pantano/Victoria,S PANTANO RD & E VICTORIA DR,32.180528,-110.823767,,,,,,0
14579,PAST(NE),Pantano/Stella,S PANTANO RD & E STELLA RD,32.18488,-110.823783,,,,,,0
14580,PALU*NE*,Pantano/Lurlene,S PANTANO RD & E LURLENE DR,32.188517,-110.823702,,,,,,0
14584,PALU(SW),Pantano/Lurlene,S PANTANO RD & E LURLENE DR,32.188059,-110.824029,,,,,,0
14585,PAST(SW),Pantano/Stella,S PANTANO RD & E STELLA RD,32.184208,-110.823984,,,,,,0
14587,PAVI*SW*,Pantano/Victoria,S PANTANO RD & E VICTORIA DR,32.180006,-110.824001,,,,,,0
14589,IHSI(NW),Ironwood Hill Dr/Silverbell,W IRONWOOD HILL DR & N SILVERBELL RD,32.250831,-111.014528,,,,,,0
14590,IHPS(NW),Ironwood Hill Dr/Palo Santo,W IRONWOOD HILL DR & N PALO SANTO DR,32.250794,-111.018634,,,,,,0
14591,IHPS(SE),Ironwood Hill Dr/Palo Santo,W IRONWOOD HILL DR & N PALO SANTO DR,32.250605,-111.017539,,,,,,0
14595,TOTE(NW),C Torim/Cmo Tetaviecti,W CALLE TORIM & S CAMINO TETAVIECTI,32.111722,-111.068612,,,,,,0
14598,BEVI(NE),Cmo Benem/C Vicam,S CAMINO BENEM & W LOS REALES RD,32.116824,-111.068856,,,,,,0
14600,LRRA(SE),Los Reales/Cmo Rahum,W LOS REALES RD & S CAMINO RAHUM,32.118811,-111.065201,,,,,,0
14603,SWFL(NE),Swan/Ft. Lowell,N SWAN RD & E FORT LOWELL RD,32.261752,-110.892348,,,,,,0
14605,CLSW(NW),Camp Lowell/Swan,E CAMP LOWELL DR & E SPEEDWAY BLVD,32.265321,-110.893766,,,,,,0
14606,GLJA(NW),Golf Links/Jaguar,E GOLF LINKS RD & S JAGUAR RD,32.192017,-110.814061,,,,,,0
14607,CLLA(NW),Camp Lowell/Laurel,E FORT LOWELL RD & N LAUREL AVE,32.265135,-110.897035,,,,,,0
14609,FLCO(SE),Fort Lowell/Columbus,E FORT LOWELL RD & N COLUMBUS BLVD,32.265038,-110.900815,,,,,,0
14610,CLLA(SE),Camp Lowell/Laurel,E CAMP LOWELL DR & N LAUREL AVE,32.265002,-110.896262,,,,,,0
14613,LCIN(SW),La Cholla/Ina,N LA CHOLLA BLVD & W INA RD,32.336618,-111.01288,,,,,,0
14614,LCLB(SW),La Cholla/Labriego,N LA CHOLLA BLVD & W LABRIEGO DR,32.329357,-111.013005,,,,,,0
14615,LCLB(NE),La Cholla/Labriego,N LA CHOLLA BLVD & W LABRIEGO DR,32.329754,-111.012948,,,,,,0
14616,LCCU(SW),La Cholla/Curtis,N LA CHOLLA BLVD & W CURTIS RD,32.301024,-111.012276,,,,,,0
14617,LCCU(SE),La Cholla/Curtis,N LA CHOLLA BLVD & W CURTIS RD,32.30094,-111.01194,,,,,,0
14618,LCRU(SW),La Cholla/Ruthrauff,N LA CHOLLA BLVD & W RUTHRAUFF RD,32.293166,-111.012275,,,,,,0
14620,LCWE(NE),La Cholla/Wetmore,N LA CHOLLA BLVD & W WETMORE RD,32.287452,-111.011818,,,,,,0
14621,GLCA(NW),Golf Links/Cathy,E GOLF LINKS RD & S CATHY AV,32.191901,-110.793906,,,,,,0
14624,PA22(SE),Pantano/22nd St(SE),S PANTANO RD & S EASTSIDE LOOP,32.205456,-110.826911,,,,,,0
14627,PA34(SW),Pantano/34th St,S PANTANO RD & E 34TH ST,32.193568,-110.824033,,,,,,0
14631,LCWM(SW),La Cholla/Foothills Mall Dr,N LA CHOLLA BLVD & W ZARRAGOZA DR,32.343308,-111.012926,,,,,,0
14633,SIMI(SE),Silverlake/Mission,W SILVERLAKE RD & W HURON ST,32.19942,-110.995637,,,,,,0
14692,DRWC(NW),Drexel/Wood Crest Dr,W DREXEL RD & S WOOD CREST DR,32.148434,-111.00115,,,,,,0
14694,IRBH(SE),Irvington/Benson Hwy,E IRVINGTON RD & E BENSON HY,32.163152,-110.935135,,,,,,0
14696,CCPE(NW),Country Club/Pennsylvania,S COUNTRY CLUB RD & E PENNSYLVANIA ST,32.171777,-110.926475,,,,,,0
14697,IRBH(NW),Irvington/Benson Hwy,E IRVINGTON RD & E BENSON HWY,32.163321,-110.935492,,,,,,0
14698,HAHC(SE),Harrison/Harrison Circle,S HARRISON RD & E 32ND ST,32.196843,-110.78958,,,,,,0
14714,SWCL(NE),Swan/Camp Lowell,N SWAN RD & E SPEEDWAY BLVD,32.265793,-110.892254,,,,,,0
14715,GLCA(SW),Golf Links/Cathy,E GOLF LINKS RD & S CATHY AVE,32.191645,-110.793916,,,,,,0
14716,LCHO(SE),La Cholla/Hospital Dr.,N LA CHOLLA BLVD & W HOSPITAL DR,32.319657,-111.01211,,,,,,0
14717,LCHO(NW),La Cholla/Hospital Dr.,N LA CHOLLA BLVD & W HOSPITAL DR,32.319062,-111.012169,,,,,,0
14718,IRMP(NW),Irvington/Midvale Park,W IRVINGTON RD & S MIDVALE PARK RD,32.160279,-111.001811,,,,,,0
14719,IRMP(SE),Irvington/Midvale Park,W IRVINGTON RD & S MIDVALE PARK RD,32.16075,-111.00063,,,,,,0
14726,EU12(SE),Euclid/12th St,S EUCLID AVE & E 18TH ST,32.219387,-110.959293,,,,,,0
14727,32DO(SE),32nd St/Dodge,E 32ND ST & S DODGE BLVD,32.199253,-110.91334,,,,,,0
14733,PA21(NE),Pantano/2121 S Pantano,S PANTANO RD & E ARIZONA,32.196976,-110.823878,,,,,,0
14735,DR12(NW),Drexel/12th Av,W DREXEL RD & S 12TH AVE,32.148711,-110.977892,,,,,,0
14736,SW29(NE),Swan/29th St,S SWAN RD & E 1ST ST,32.200512,-110.892239,,,,,,0
14737,IRSC(NE),Irvington/C Santa Cruz,W IRVINGTON RD & S MIDVALE PARK RD,32.163448,-110.989519,,,,,,0
14738,IRSC(SE),Irvington/C Santa Cruz,W IRVINGTON RD & S MIDVALE PARK RD,32.163127,-110.989962,,,,,,0
14739,32WI(NW),32nd St/Winstel,E 32ND ST & S WINSTEL AV,32.199413,-110.910854,,,,,,0
14740,32WI(SE),32nd St/Winstel,E 32ND ST & S WINSTEL AVE,32.199286,-110.910273,,,,,,0
14741,PA21*SW*,Pantano/2121 S Pantano,S PANTANO RD & E ARIZONA,32.196709,-110.82402,,,,,,0
14747,LCOM(NE),La Cholla/Omar,N LA CHOLLA BL & W OMAR DR,32.333076,-111.01292,,,,,,0
14748,LCJA(NW),La Cholla/Jay Av,N LA CHOLLA BLVD & N JAY AVE,32.297686,-111.012157,,,,,,0
14749,LCJA(NE),La Cholla/Jay Av,N LA CHOLLA BLVD & N JAY AVE,32.297837,-111.011963,,,,,,0
14750,LCRI(SW),La Cholla/River Rd,N LA CHOLLA BLVD & W RIVER RD,32.304119,-111.01232,,,,,,0
14752,LCRI(NE),La Cholla/River Rd,N LA CHOLLA BLVD & W RIVER RD,32.306622,-111.01187,,,,,,0
14753,LCOM(SW),La Cholla/Omar,N LA CHOLLA BLVD & W OMAR DR,32.33246,-111.013018,,,,,,0
14755,LTC(25S),Laos Transit Center,S ROY LAOS WAY & E MOSSMAN RD,32.162033,-110.971569,,,,,,0
14756,TTC(061),Tohono Transit Center,N TOHONO TRANSIT CENTER DR & E PENNINGTON ST,32.288927,-110.967964,,,,,,0
14758,GRAN(NW),Greasewood/Anklam,N GREASEWOOD RD & W ANKLAM RD,32.22638,-111.020403,,,,,,0
14760,SPED(NW),Speedway/El Dorado,E SPEEDWAY BLVD & N BARBARA WORTH,32.235651,-110.855944,,,,,,0
14761,TO7A(NE),Toole/7th Av,E TOOLE AVE & E COUNCIL ST,32.225663,-110.970401,,,,,,0
14780,LCOJ(NE),La Cholla/OracleJaynesStation,N LA CHOLLA BLVD & N FOUNTAINS AVE,32.312734,-111.011953,,,,,,0
14781,LCOJ(SW),La Cholla/OracleJaynesStation,N LA CHOLLA BLVD & W ORACLE JAYNES STATION RD,32.311778,-111.012337,,,,,,0
14782,WEFY(SW),Wetmore/Frey Av,W WETMORE RD & W SCHAFER ST,32.286791,-111.007176,,,,,,0
14783,LCWE(NW),La Cholla/Wetmore,N LA CHOLLA BL & W WETMORE RD,32.288125,-111.012092,,,,,,0
14784,GLSW(NW),Glenn/Swan,E GLENN ST & N VENICE AVE,32.257941,-110.89325,,,,,,0
14785,TVRE(SE),Tanque Verde/Pso Rancho Esperanza,E TANQUE VERDE RD & N PASEO RANCHO ESPERANZA,32.250659,-110.835269,,,,,,0
14786,TVRE(NW),Tanque Verde/Pso Rancho Esperanza,E TANQUE VERDE RD & N CAMINO PIO DECIMO,32.25083,-110.83533,,,,,,0
14787,PIWI(NW),Pima/Wilmot,E PIMA ST & N WILMOT RD,32.243422,-110.858594,,,,,,0
14794,GRIH(IF),Grant/IHOP (1500 W Grant),W GRANT RD & N DRAGOON ST,32.25057,-110.998776,,,,,,0
14799,LCRD(NE),La Cholla/Rudasill,N LA CHOLLA BLVD & W RUDASILL RD,32.316216,-111.011966,,,,,,0
14800,LCRD(SW),La Cholla/Rudasill,N LA CHOLLA BLVD & W RUDASILL RD,32.315228,-111.012356,,,,,,0
14802,BHHA(NW),Benson Hy/Hartford Strav,E BENSON HWY & S HARTFORD STRA,32.144635,-110.905805,,,,,,0
14803,AVBH(SW),Alvernon/Benson Hwy,S ALVERNON WAY & E BENSON HWY,32.146406,-110.909363,,,,,,0
14804,AVWR(SW),Alvernon/White River,S ALVERNON WAY & E WHITE RIVER DR,32.141554,-110.909519,,,,,,0
14805,AVTR(SW),Alvernon/Transcon Wy,S ALVERNON WAY & E TRANSCON WAY,32.137195,-110.909619,,,,,,0
14808,SIGR(NE),Silverbell/Grant,N SILVERBELL RD & W GRANT RD,32.251525,-111.013757,,,,,,0
14810,SIFR(SE),Silverbell/Frostwood Pl,N SILVERBELL RD & W FROSTWOOD LN,32.255478,-111.016362,,,,,,0
14811,SISA(NE),Silverbell/Silver Arrow Dr,N SILVERBELL RD & N XOCHIPILLI DR,32.2599,-111.018914,,,,,,0
14813,SIFR(SW),Silverbell/Frostwood Pl,N SILVERBELL RD & W FROSTWOOD LN,32.25556,-111.016489,,,,,,0
14816,RI15(NW),River/15th Av,W RIVER RD & N 15TH AV,32.29763,-110.983157,,,,,,0
14817,RI15(SE),River/15th Av,W RIVER RD & N 15TH AV,32.297453,-110.982326,,,,,,0
14819,LINE(NW),Liberty/Nebraska,S LIBERTY AVE & W NEBRASKA ST,32.156497,-110.973327,,,,,,0
14820,LCBR(NE),La Cholla/Brittain,N LA CHOLLA BLVD & W BRITTAIN DR,32.291852,-111.011922,,,,,,0
14821,LCBR(SW),La Cholla/Brittain,N LA CHOLLA BLVD & W BRITTAIN DR,32.291289,-111.01211,,,,,,0
14822,STMA(NW),Stella/Mann,E STELLA RD & S MANN AVE,32.18472,-110.849843,,,,,,0
14823,LIIR(SE),Liberty/Irvington,S LIBERTY AVE & W IRVINGTON RD,32.162953,-110.973202,,,,,,0
14824,LIWY(NE),Liberty/Wyoming,S LIBERTY AV & W WYOMING ST,32.15972,-110.973173,,,,,,0
14825,SWRI(SW),Swan/River Road,N SWAN RD & E RIVER RD,32.279065,-110.89273,,,,,,0
14826,SWRI(NE),Swan/River Road,N SWAN RD & E SUNRISE DR,32.279538,-110.892468,,,,,,0
14827,KOTI(SW),Kolb/Timrod,S KOLB RD & E TIMROD ST,32.215517,-110.841052,,,,,,0
14828,KOTI(NE),Kolb/Timrod,S KOLB RD & E TIMROD ST,32.215876,-110.840813,,,,,,0
14829,SHIN(NE),Shannon/Ina,N SHANNON RD & W INA RD,32.337865,-111.029441,,,,,,0
14830,SHPC(SE),Shannon/Pima College Northwest,N SHANNON RD & W CAMPUS PARK WAY,32.344751,-111.028846,,,,,,0
14831,SHYM(NE),Shannon/YMCA,N SHANNON RD & W CAMPUS PARK WAY,32.346474,-111.026216,,,,,,0
14832,12MA(NE),12th Av/Marcus,S 12TH AVE & W MARCUS DR,32.122544,-110.977486,,,,,,0
14833,12RI(SW),12th Av/C Rita,S 12TH AVE & W DOCE PL,32.127751,-110.97781,,,,,,0
14835,KOSY(NE),Kolb/Sylvane,S KOLB RD & E SYLVANE DR,32.202106,-110.840808,,,,,,0
14837,CRDM(VC),Craycroft/AF Base Gate,N DAVIS MONTHAN DR & S CRAYCROFT RD,32.191065,-110.875407,,,,,,0
14839,HATO*NE*,Harrison/Topout Peak,S HARRISON RD & E TOPOUT PEAK PL,32.204888,-110.7897,,,,,,0
14843,ORPL(SE),Oracle/Plata,N ORACLE RD & W LESTER ST,32.244697,-110.977904,,,,,,0
14846,UATP(01),UA Technology Park,UNNAMED,32.090941,-110.808173,,,,,,0
14847,HORI(NE),SS/Houghton/Rita,S HOUGHTON RD & E RITA RD,32.103041,-110.772566,,,,,,0
14856,SPFR(SE),Speedway/Falcon Ridge Dr.,W SPEEDWAY BLVD & N FALCON RIDGE DR,32.235865,-111.015479,,,,,,0
14862,12LE(NE),12th Av/Leary Dr,S 12TH AVE & W ELVIRA RD,32.126088,-110.977509,,,,,,0
14864,PK22(NE),Park/22nd St(NE),S PARK AV & E 22ND ST,32.207498,-110.956121,,,,,,0
14865,VACO(NW),Valencia/Columbus,E VALENCIA RD & S COLUMBUS BLVD,32.134376,-110.901415,,,,,,0
14866,HASI(NW),Harrison/Sierra,N HARRISON RD & E VIA DEL SOL CALIENTE,32.234192,-110.789914,,,,,,0
14867,PK18(SW),Park/18th St,S PARK AVE & E 19TH ST,32.211296,-110.956428,,,,,,0
14868,RIHI(NW),River/Hillcrest Dr,E RIVER RD & N HILLCREST DR,32.29631,-110.966466,,,,,,0
14869,RIHI(SE),River/Hillcrest Dr,E RIVER RD & N HILLCREST DR,32.296063,-110.96599,,,,,,0
14870,TEGI(SE),Tetakusim Rd/Gila Ave,W TETAKUSIM RD & S GILA AVE,32.115468,-111.049484,,,,,,0
14871,1037(SW),10th Av/37th St,S 10TH AVE & W 37TH ST,32.191091,-110.974629,,,,,,0
14872,1034(SW),10th Av/34th St,S 10TH AVE & W 34TH ST,32.194121,-110.974662,,,,,,0
14873,CR3S(NW),Craycroft/3rd St,N CRAYCROFT RD & E 3RD ST,32.231741,-110.875563,,,,,,0
14874,FWSC(SE),Flowing Wells/Schafer,N FLOWING WELLS RD & W WETMORE RD,32.287394,-110.995006,,,,,,0
14875,PIAL(NE),Pima/Alamo,E PIMA ST & N ALAMO AVE,32.243448,-110.862103,,,,,,0
14876,1020(SE),10th Av/20th St,S 10TH AVE & W 20TH ST,32.209145,-110.974576,,,,,,0
14877,RUSH(SE),Ruthrauff/Shamrock,W RUTHRAUFF RD & N SHAMROCK PL,32.294108,-111.006502,,,,,,0
14878,RULA(NW),Ruthrauff/Laird Wy,W RUTHRAUFF RD & W SCOTS PINE ST,32.291904,-111.003797,,,,,,0
14879,WEIR(SE),Wetmore/Iroquois,W WETMORE RD & N IROQUOIS AVE,32.286888,-110.998304,,,,,,0
14880,PRPO(NE),Prince/Pomona,W PRINCE RD & N POMONA RD,32.272364,-110.999108,,,,,,0
14881,RURO(NE),Ruthrauff/Romero,W RUTHRAUFF RD & N ROMERO RD,32.288551,-111.002695,,,,,,0
14882,RUSE(SE),Ruthrauff/Seabrooke,W RUTHRAUFF RD & W SEABROOKE DR,32.292153,-111.00383,,,,,,0
14883,RUSH(NW),Ruthrauff/Shamrock,W RUTHRAUFF RD & N SHAMROCK PL,32.294237,-111.006895,,,,,,0
14884,RURO(SW),Ruthrauff/Romero,W RUTHRAUFF RD & N ROMERO RD,32.287927,-111.002311,,,,,,0
14885,PIPV(SE),Pima/Palo Verde,E PIMA ST & N PALO VERDE BL,32.243291,-110.917973,,,,,,0
14886,PASE(NE),Pantano/Seneca,N PANTANO RD & E SENECA ST,32.247406,-110.823731,,,,,,0
14887,PAPO(SW),Pantano/Poinciana,S PANTANO RD & E POINCIANA DR,32.167638,-110.82403,,,,,,0
14889,GRCL*NW*,Grant/Chrysler,E GRANT RD & N CHRYSLER DR,32.250613,-110.91539,,,,,,0
14890,IROL(NW),Irvington/C Ole,E IRVINGTON RD & S CALLE OLE,32.163353,-110.94873,,,,,,0
14892,FLVI(NE),Fort Lowell/Vine,E FORT LOWELL RD & N VINE AVE,32.264869,-110.949874,,,,,,0
14897,PACN(SW),Pantano/Constant,S PANTANO RD & E CONSTANT PL,32.164488,-110.824023,,,,,,0
14898,PACN(NE),Pantano/Constant,S PANTANO RD & E CONSTANT PL,32.164878,-110.823762,,,,,,0
14899,MM80(NB),Miracle Mile/800 Block,W MIRACLE MILE & N 15TH AVE,32.261096,-110.983847,,,,,,0
14900,COCE(SE),Congress/Central,W CONGRESS ST & W RIVERVIEW ST,32.220939,-110.978499,,,,,,0
14903,APFS(IF),Aero Park Bl/Flight Safety,E AERO PARK BLVD,32.110931,-110.956954,,,,,,0
14904,FLCH(SW),Fort Lowell/Cherry,E FORT LOWELL RD & N VINE AVE,32.26473,-110.948282,,,,,,0
14905,NELP(NW),SS/Nexus/LaPalma Dr,S NEXUS RD & E LA PALMA DR,32.117813,-110.797355,,,,,,0
14906,VAHE(NW),Valencia/Headley,W VALENCIA RD & S HEADLEY RD,32.133944,-111.008121,,,,,,0
14908,PAPA(SW),Pantano/PantanoPkwy,S PANTANO RD & PANTANO PKWY,32.20867,-110.823879,,,,,,0
14909,FLNA(NW),Fort Lowell/Navajo,E FORT LOWELL RD & E NAVAJO RD,32.26487,-110.954525,,,,,,0
14910,KI22(SE),Kino Pw/22nd St,N STONE AVE,32.204807,-110.949252,,,,,,0
14913,KISI(NE),Kino Pw/Silverlake Rd,S KINO PKWY & E SILVERLAKE RD,32.200157,-110.949448,,,,,,0
14914,GR1A(SE),Grant/1st Av,E GRANT RD & N 1ST AVE,32.250143,-110.960096,,,,,,0
14916,LRNH(SW),Los Reales/Nogales Hwy,DESERT DIAMOND CASINO & S KOMELIC DR,32.119453,-110.962782,,,,,,0
14918,COSM(SW),SS/C Concordia/Shadow Mountain Dr,W C CONCORDIA & E C CONCORDIA,32.373524,-110.970106,,,,,,0
14919,MPDE(SE),Midvale Park/Denning,S MIDVALE PARK RD & W THORNE ST,32.146539,-110.998785,,,,,,0
14920,PAEL(NE),Pantano/S Eastside Loop,S PANTANO RD & S EASTSIDE LOOP,32.202772,-110.826842,,,,,,0
14921,PAEL*SW*,Pantano/S Eastside Loop,S PANTANO RD & S EASTSIDE LOOP,32.202261,-110.826749,,,,,,0
14923,ESPL(NW),Escalante/Av de las Palmas,E ESCALANTE RD & S AVE DE LAS PALMA,32.177454,-110.810808,,,,,,0
14924,ESPL(SW),Escalante/Av de las Palmas,E ESCALANTE RD & S AVENIDA DE LAS PALMAS,32.177244,-110.810595,,,,,,0
14925,STDO(SE),Stone/Dorothy,N STONE AVE & E DOROTHY LN,32.284801,-110.969504,,,,,,0
14926,AVFT(NE),Alvernon/Fort Lowell,N ALVERNON WAY & E FORT LOWELL RD,32.265339,-110.909754,,,,,,0
14927,AVKL(NE),Alvernon/Kleindale,N ALVERNON WAY,32.269081,-110.9098,,,,,,0
14928,AVKL(NW),Alvernon/Kleindale,N ALVERNON WAY,32.269081,-110.909864,,,,,,0
14929,AVHR(SW),Alvernon/Hardy,N ALVERNON WAY,32.267278,-110.909872,,,,,,0
14930,AVFT(SW),Alvernon/Fort Lowell,N ALVERNON WAY & E PRESIDIO RD,32.264883,-110.909929,,,,,,0
14931,BHCO(NW),Benson Hy/Columbus Blvd,E BENSON HWY & E PRISER LOOP,32.142022,-110.901576,,,,,,0
14932,PARO(NE),Pantano/Rosewood,N PANTANO RD & E ROSEWOOD ST,32.232473,-110.823744,,,,,,0
14933,FLLR(SE),Fort Lowell/Av Laurel Real,E FORT LOWELL RD & N AVE LAUREL REAL,32.265068,-110.90455,,,,,,0
14934,BRGO(SE),Broadway/Gollob,E BROADWAY BLVD & N GOLLOB RD,32.220759,-110.798065,,,,,,0
14935,BRGO(NW),Broadway/Gollob,0 E BROADWAY BL & N GOLLOB RD,32.220918,-110.798777,,,,,,0
14936,BRRY(NE),Broadway/Rayburn,E BROADWAY BLVD & N RAYBURN PL,32.220934,-110.802934,,,,,,0
14937,BRRY*SE*,Broadway/Rayburn,E BROADWAY BLVD & N RAYBURN PL,32.220772,-110.802947,,,,,,0
14938,BREL*SW*,Broadway/Elster,E BROADWAY BLVD & N ELSTER DR,32.220755,-110.793329,,,,,,0
14939,BRDI(NW),Broadway/Dixie,E BROADWAY BLVD & N DIXIE AVE,32.220907,-110.79434,,,,,,0
14940,PAVR(SE),Pantano/Villa Rica,N PANTANO RD & E C VILLA RICA,32.239345,-110.823719,,,,,,0
14941,TV64(EB),Tanque Verde/6390 E Tanque Verde,E TANQUE VERDE RD & E TANQUE VERDE RD,32.243787,-110.85632,,,,,,0
14942,DRRS(SE),Drexel/Ray Strav,E DREXEL RD & S BRYANT AVE,32.148831,-110.903731,,,,,,0
14943,VASW(SE),Valencia/Swan,E VALENCIA RD & E BENSON HWY,32.134274,-110.891496,,,,,,0
14944,CRFA(SW),Craycroft/Fairmount,N CRAYCROFT RD & E FAIRMOUNT ST,32.239602,-110.875593,,,,,,0
14947,SOLR(SW),Sorrel/LosReales,S TUCSON BLVD & E BROADWAY BLVD,32.117545,-111.046005,,,,,,0
14949,VAOT(NW),Valencia/Oak Tree,W VALENCIA RD & S OAK TREE RD,32.133906,-111.003755,,,,,,0
14951,4A25(SW),4th Av/25th St,S 4TH AVE & E 25TH ST,32.203406,-110.965522,,,,,,0
14952,12AL(SW),12th Av/C Alvord,S 12TH AVE & W C ALVORD,32.144797,-110.977661,,,,,,0
14953,CC46(NE),Country Club/46th St,S COUNTRY CLUB RD & E 46TH ST,32.181832,-110.926322,,,,,,0
14954,CC44(NE),Country Club/44th St,S COUNTRY CLUB RD & E 44TH ST,32.184897,-110.926347,,,,,,0
14955,CCKV(NE),Country Club/Kaibab Vista,S COUNTRY CLUB RD & E COCONINO VISTA,32.187208,-110.926363,,,,,,0
14956,36KI(NW),36th St/Kino Pw,E COCONINO VISTA,32.192509,-110.948327,,,,,,0
14957,CCKV(NW),Country Club/Kaibab Vista,S COUNTRY CLUB RD & E COCONINO VISTA,32.187138,-110.926542,,,,,,0
14958,CC44(NW),Country Club/44th St,S COUNTRY CLUB RD & E 44TH ST,32.184592,-110.926511,,,,,,0
14959,CC46(NW),Country Club/46th St,S COUNTRY CLUB RD & E 46TH ST,32.181559,-110.926492,,,,,,0
14961,ESLB(NW),Escalante/Le Beaux,E ESCALANTE RD & S LE BRECQUE PL,32.177418,-110.81521,,,,,,0
14962,STLE(NE),Stone/Lester,N STONE AVE & E LESTER ST,32.244237,-110.971773,,,,,,0
14963,GLRO(SE),Glenn/C de Romy,E GLENN ST & N C DE ROMY,32.257799,-110.905648,,,,,,0
14965,OGTI(NW),SS/Orange Grove/Cmo de la Tierra,W ORANGE GROVE RD & N CMO DE LA TIERRA,32.32335,-111.03768,,,,,,0
14967,KITM(NE),Kino Pw/Tucson Marketplace,E JUMPING CHOLLA DR,32.185796,-110.944241,,,,,,0
14975,KISI(SW),Kino Pw/Silverlake Rd,W 36TH ST,32.199012,-110.949712,,,,,,0
14977,6SFR(SW),6th St/Fremont,E 6TH ST & N FREMONT AVE,32.227698,-110.955287,,,,,,0
14981,LCMA(SW),La Canada/Magee,N LA CANADA DR & W MAGEE RD,32.351034,-110.99588,,,,,,0
14982,INCR(NW),Ina/Cmo De Las Capas,N LA CANADA DR & W INA RD,32.337748,-111.061601,,,,,,0
14983,OGRI(SE),SS/Orange Grove/Thornydale Rd,W ORANGE GROVE RD & N THORNYDALE RD,32.323107,-111.043515,,,,,,0
14984,THHH(NE),SS/Thornydale/Horizon Hills Dr,N THORNYDALE RD & W HORIZON HILLS DR,32.330688,-111.046048,,,,,,0
14985,OGTI(SE),SS/Orange Grove/Cmo de la Tierra,W ORANGE GROVE RD & N CMO DE LA TIERRA,32.323085,-111.037032,,,,,,0
14988,LCMA(NE),La Canada/Magee,N LA CANADA DR & W COOL DR,32.352422,-110.99554,,,,,,0
14989,VOEC(SE),SS/Valle del Oro Rd/El Conquistador,N VALLE DEL ORO RD & E EL CONQUISTADOR WAY,32.387934,-110.966506,,,,,,0
14991,IMOR(NW),Innovation Mrkt Dr/Oracle Rd,N INNOVATION MARKET DR,32.42325,-110.940796,,,,,,0
14993,PRSR(NE),Prince/Santa Rita,E PRINCE RD,32.272212,-110.953653,,,,,,0
14994,CAVL(NE),Campbell Av/Valencia,S CAMPBELL AVE & E VALENCIA RD,32.134608,-110.943354,,,,,,0
14995,VACA(SE),Valencia/Campbell,E VALENCIA RD & E MOSSMAN RD,32.134041,-110.942918,,,,,,0
14996,LIEV(SE),Littletown/Empire Vista,E LITTLETOWN RD & S EMPIRE VISTA DR,32.134266,-110.879877,,,,,,0
14997,SPEL(NW),Speedway/Electra,E SPEEDWAY BLVD & N KEESAL AVE,32.235607,-110.812073,,,,,,0
14999,PR68(WB),Prince/680 W Prince,W PRINCE RD & N FAIRVIEW AVE,32.272128,-110.983077,,,,,,0
15000,SW17(SW),Swan/17th St,S SWAN RD & E 17TH ST,32.213351,-110.892393,,,,,,0
15001,SW19(SW),Swan/19th St,S SWAN RD & E 19TH ST,32.21013,-110.892416,,,,,,0
15002,SWGL(NE),Swan/Glenn,N SWAN RD & E GLENN ST,32.258257,-110.892428,,,,,,0
15003,GODC(SE),Goret/Dales Crossing,W GORET RD,32.263628,-111.018869,,,,,,0
15005,CAPA(SW),Cardinal/Pajarito,S CARDINAL AVE & W C PAJARITO,32.127696,-111.02903,,,,,,0
15007,TEKO(SW),Territory Dr/Kolb,E TERRITORY DR & N GRANADA AVE,32.305835,-110.844969,,,,,,0
15009,CCMI(SE),Country Club/Michigan,S COUNTRY CLUB RD & E MICHIGAN ST,32.170049,-110.926261,,,,,,0
15011,SWFA(NW),Swan/Fairmount,N SWAN RD & E FAIRMOUNT ST,32.240038,-110.892739,,,,,,0
15013,SWSU(SW),Swan/Sunrise Dr,N SWAN RD & E FOOTHILLS DR,32.307764,-110.892617,,,,,,0
15014,COAP(IN),SS/Wal Mart/Arizona Pavilions,W ARIZONA PAVILLIONS DR & N ARIZONA PAVILLIONS DR,32.355451,-111.089281,,,,,,0
15015,SHRI(NW),SS/Shannon/River,W RIVER RD & W RIVER RD,32.310764,-111.029044,,,,,,0
15016,LALC(SE),Lambert/LaCanada,W LAMBERT LN & N LA CANADA DR,32.39523,-110.994861,,,,,,0
15027,BRHO(PR),Broadway/Houghton Park&Ride,N HOUGHTON RD & S HOUGHTON RD,32.222105,-110.773392,,,,,,0
15047,TV64(WB),Tanque Verde/6445 E Tanque Verde Rd,E TANQUE VERDE RD & N CMO SERNA,32.245182,-110.854659,,,,,,0
15101,HEWA(SE),SL/Helen/Warren,E HELEN ST & N MARTIN AVE,32.237269,-110.94644,,,,,,0
15151,2SCH(CR),SL/2nd St/Cherry Av,E 2ND ST & N WARREN AVE,32.233813,-110.947324,,,,,,0
15296,GLCH(SW),Glenn/Cherry,E GLENN ST & N HIGHLAND AVE,32.257464,-110.948399,,,,,,0
15587,SAGR(NE),SS/Sandario Rd/Grier Rd,N SANDARIO RD & W DENNY ST,32.454348,-111.216944,,,,,,0
15679,GRAL(NW),Grant/Alvernon,E GRANT RD & N HASKELL DR,32.250729,-110.910428,,,,,,0
15924,HO22(NE),Houghton/22nd St,S HOUGHTON RD & E BUFFALOBERRY LOOP,32.207167,-110.772631,,,,,,0
15925,RVPM(NW),Rancho Vistoso/Pusch Mountain View,E RANCHO VISTOSO BLVD & N PUSCH MOUNTAIN VIEW LN,32.441731,-110.939111,,,,,,0
15926,CR20(SW),Craycroft/20th St,S CRAYCROFT RD & E 19TH ST,32.209749,-110.875255,,,,,,0
15928,LRAL(NW),Los Reales/Cmo Alegre,W LOS REALES RD & S CMO ALEGRE,32.119235,-111.033849,,,,,,0
15929,IRGR(SE),Irvington/Greenway,E IRVINGTON RD & S GREENWAY DR,32.163179,-110.9395,,,,,,0
15930,PA3S(SW),Pantano/3rd St,N PANTANO RD & E 3RD ST,32.231317,-110.823928,,,,,,0
15931,LRCA(NW),Los Reales/Cardinal,W LOS REALES RD & S CARDINAL AVE,32.119255,-111.029395,,,,,,0
15933,6APE(NE),6th Av/Pennington,N 6TH AVE & E PENNINGTON ST,32.223785,-110.968546,,,,,,0
15934,MIMI(SW),Mission/Mission Pl,S MISSION RD & W IRVINGTON PL,32.165278,-111.006501,,,,,,0
15935,MIMI(NE),Mission/Mission Pl,S MISSION RD & W MISSION PL,32.167087,-111.005971,,,,,,0
15937,SPOR(NW),SS/SteamPumpWy/OracleRd,N ORACLE PARK N RIDE DR & N ORACLE RD,32.407213,-110.947317,,,,,,0
15938,CRWI(NW),Craycroft/Williams Blvd,S CRAYCROFT RD & E WILLIAMS BLVD,32.217546,-110.875277,,,,,,0
15939,LARF(SW),Lambert/Riverfront Park,W LAMBERT LN & N CALLE MIRA MESA,32.398135,-110.977911,,,,,,0
15940,LARF(NW),Lambert/Riverfront Park,W LAMBERT LN & N CALLE MIRA MESA,32.398276,-110.978266,,,,,,0
15942,6SHI(NW),6th St/Highland,E 6TH ST & N MOUNTAIN AVE,32.227929,-110.951856,,,,,,0
15943,36PL(SW),36th St/Plumer,E 36TH ST & S PLUMER AVE,32.192348,-110.939488,,,,,,0
15945,GLWY(SE),Glenn/Wyatt,E GLENN ST & N WYATT DR,32.25788,-110.884036,,,,,,0
15948,RORO(SW),Romero/Roger,N ROMERO RD & W ROGER RD,32.279178,-111.00345,,,,,,0
15949,ROSM(SE),Romero/Smoot,N ROMERO RD & W SMOOT DR,32.27648,-111.003342,,,,,,0
15950,ROSM(SW),Romero/Smoot,N ROMERO RD & W SMOOT DR,32.276338,-111.003493,,,,,,0
15951,VACS(PR),Casino del Sol Park & Ride S,W VALENCIA RD & S IGNACIO M BAUMEA,32.131199,-111.082812,,,,,,0
15953,VATI(NW),Valencia/Cmo de la Tierra,W VALENCIA RD & S CMO DE LA TIERRA,32.133919,-111.038779,,,,,,0
15955,VACA(NW),Valencia/Caballo Rd,W VALENCIA RD & S CABALLO RD,32.132852,-111.053007,,,,,,0
15956,VAOE(NW),Valencia/Cmo de Oeste,W VALENCIA RD & S CMO DE OESTE,32.133602,-111.063613,,,,,,0
15957,VAMA(NW),Valencia/Mark,W VALENCIA RD & S MARK RD,32.133579,-111.072668,,,,,,0
15958,GRSU(NW),Grant/Sunny Dr,E GRANT RD & N PSO DEL NORTE,32.250744,-110.862619,,,,,,0
15959,VAMA(SE),Valencia/Mark,W VALENCIA RD & UNKNOWN,32.133282,-111.070871,,,,,,0
15960,VAOE(SE),Valencia/Cmo de Oeste,W VALENCIA RD & S CMO DE OESTE,32.13327,-111.062288,,,,,,0
15962,VATI(SE),Valencia/Cmo de la Tierra,W VALENCIA RD & S CAMINO DE LA TIERRA,32.133613,-111.036756,,,,,,0
15963,SIRR(SW),Silverbell/Rainbow Ridge,N SILVERBELL RD & W RAINBOW RIDGE RD,32.24653,-111.01105,,,,,,0
15964,HAOR(SE),SS/Hawser St/Oracle,N ORACLE RD & E GOLDER RANCH DR,32.484409,-110.921718,,,,,,0
15965,1AOR(NW),SS/1st Av/Oracle,N 1ST AVE & N ORACLE RD,32.401622,-110.956645,,,,,,0
15966,GLKO(PR),SS/Golf Links/Kolb Park & Ride,N 6TH AVE,32.191625,-110.838798,,,,,,0
15968,COSM(NW),SS/C Concordia/Shadow Mountain Dr,W C CONCORDIA & E C CONCORDIA,32.373691,-110.969971,,,,,,0
15971,PA22(SW),Pantano/22nd St,S PANTANO RD & N MAIN AVE,32.205674,-110.827046,,,,,,0
15972,IPTA(NW),Innovation Pk Dr/Tangerine Rd,E INNOVATION PARK DR & N NORTHERN AVE,32.432388,-110.947372,,,,,,0
15973,LTC(421),SS/Laos Transit Center,N SUN TRAN BLVD,32.161862,-110.971302,,,,,,0
15974,IPVC(NW),Innovation Pk Dr/Vistoso Commerce Pl,E INNOVATION PARK DR,32.438269,-110.944729,,,,,,0
15976,RIRC(NW),SS/River/River Crossing Ln,W RIVER RD & N BREEDEN DR,32.29767,-110.984001,,,,,,0
15977,THHH(SW),SS/Thornydale/Horizon Hills Dr,N THORNYDALE RD & W COSTCO DR,32.330278,-111.046362,,,,,,0
15978,NOAB(NW),SS/Nogales Hy/Abrego Dr,S NOGALES HWY & N ABREGO DR,31.91139,-110.98241,,,,,,0
15979,SADG(SW),SS/Sahuarita Rd/Desert Gem,W SAHUARITA CENTER WAY & S DESERT GEM LN,31.957059,-110.974364,,,,,,0
15980,PVUN(NE),Palo Verde/UniversalWy,S PALO VERDE RD & E UNIVERSAL WAY,32.13239,-110.917609,,,,,,0
15981,22HA(SE),22nd St/Harrison,E 22ND ST & S HARRISON RD,32.206298,-110.789211,,,,,,0
15984,SISA(NW),Silverbell/Silver Arrow Dr,N SILVERBELL RD & N XOCHIPILLI DR,32.259599,-111.018849,,,,,,0
15985,HAKE(NW),Harrison/Kenyon,S HARRISON RD & E KENYON DR,32.213714,-110.789897,,,,,,0
15986,SIGO(SW),Silverbell/Goret,N SILVERBELL RD & W GORET RD,32.26272,-111.020906,,,,,,0
15987,SIGO(SE),Silverbell/Goret,N SILVERBELL RD & W GORET RD,32.26279,-111.020734,,,,,,0
15988,ORWE(NE),Oracle/Wetmore,N ORACLE RD,32.287259,-110.978013,,,,,,0
15989,RSSA(NW),SS/Rancho Sahuarita Bl/Sahuarita Rd,S RANCHO SAHUARITA BLVD & S DESERT GEM LN,31.959036,-110.983439,,,,,,0
15990,22HO(NW),22nd St/Houghton,E 22ND ST & S HOUGHTON RD,32.206415,-110.773707,,,,,,0
15991,HAKE(NE),Harrison/Kenyon,S HARRISON RD & E KENYON DR,32.213949,-110.789624,,,,,,0
15992,HOBR(SW),Houghton/Broadway,S HOUGHTON RD & E BROADWAY BLVD,32.219919,-110.772815,,,,,,0
15993,BRHO(IN),Broadway/Houghton(IN),E BROADWAY BLVD & N HOUGHTON RD,32.221444,-110.774585,,,,,,0
15994,STDR(SW),Stone/Drachman,N SUN TRAN BLVD & E TANGELO DR,32.238769,-110.971986,,,,,,0
15995,GRIH(SE),Greasewood/Ironwood Hill,W IRONWOOD HILL DR & N PALO HACHA DR,32.250055,-111.020382,,,,,,0
15996,LCIN(NE),La Canada/Ina,N LA CANADA DR,32.337673,-110.994975,,,,,,0
15999,PM19(NE),SS/Pima Mine Rd/I-19,UNKNOWN,32.004595,-110.98827,,,,,,0
16001,22GO(NE),22nd St/Gollob Rd,E 22ND ST & E CALLE MARIA,32.206398,-110.79857,,,,,,0
16002,GRIH(SW),Greasewood/Ironwood Hill,N GREASEWOOD RD & W IRONWOOD RIDGE DR,32.250123,-111.020544,,,,,,0
16003,22LA(NW),22nd St/Lakeshore Ln,N SUN TRAN BLVD & E TANGELO DR,32.207217,-110.922804,,,,,,0
16004,22RA(NW),22nd St/Randolph Way,N SUN TRAN BLVD & E TANGELO DR,32.207168,-110.91849,,,,,,0
16005,ANAV(NE),SS/Anway Rd/Avra Valley Rd,N SUN TRAN BLVD & E TANGELO DR,32.379387,-111.321073,,,,,,0
16006,RVPM(IN),SS/Rancho Vistoso/Pusch Mountain View,N SUN TRAN BLVD & E TANGELO DR,32.4417,-110.938675,,,,,,0
16007,SHRI(NE),SS/Shannon/River,N SUN TRAN BLVD & E TANGELO DR,32.310578,-111.028862,,,,,,0
16008,MMCC(NW),SS/Marana Main/Health Center,N SUN TRAN BLVD & E TANGELO DR,32.448973,-111.212277,,,,,,0
16009,RTC(421),SS/Downtown Ronstadt Center,W RONSTADT TRANSIT CENTER DR,32.222564,-110.967952,,,,,,0
16010,SPTP(IN),SS/Science Park Dr/Tech Park Dr,N SUN TRAN BLVD & E TANGELO DR,32.087966,-110.801821,,,,,,0
16011,RIAC(NE),SS/Rita Rd/Arizona Canning,N SUN TRAN BLVD & E TANGELO DR,32.095803,-110.804022,,,,,,0
16012,RIAT(NE),SS/Rita Rd/Athel Tree Dr,N SUN TRAN BLVD & E TANGELO DR,32.112864,-110.801131,,,,,,0
16013,TTC(412),SS/Tohono Transit Center,N TOHONO TRANSIT CENTER DR & E PENNINGTON ST,32.288915,-110.968615,,,,,,0
16014,IMOR(IN),SS/Innovation Mrkt Dr/Oracle Rd,N SUN TRAN BLVD & E TANGELO DR,32.423069,-110.940097,,,,,,0
16015,RIAT(SW),SS/Rita Rd/Athel Tree Dr,N SUN TRAN BLVD & E TANGELO DR,32.112492,-110.801873,,,,,,0
16016,RIME(SE),SS/Rita Rd/Mesquite Elementary School,N SUN TRAN BLVD & E TANGELO DR,32.114063,-110.791795,,,,,,0
16017,RIME(NW),SS/Rita Rd/Mesquite Elementary School,N SUN TRAN BLVD & E TANGELO DR,32.115014,-110.793905,,,,,,0
16018,KOST(SW),SS/Kolb/Stella,N SUN TRAN BLVD & E TANGELO DR,32.184361,-110.841141,,,,,,0
16019,KOST(NE),SS/Kolb/Stella,N SUN TRAN BLVD & E TANGELO DR,32.185018,-110.84075,,,,,,0
16020,KOES(NE),SS/Kolb/Escalante,N SUN TRAN BLVD & E TANGELO DR,32.177831,-110.840781,,,,,,0
16021,ESKO(SE),SS/Escalante/Kolb,N SUN TRAN BLVD & E TANGELO DR,32.177281,-110.84045,,,,,,0
16033,THLV(SW),SS/Thornydale/Linda Vista Bl,N THORNYDALE RD & W LINDA VISTA BLVD,32.38033,-111.047058,,,,,,0
16034,THCF(SW),SS/Thornydale/Cortaro Farms Rd,N THORNYDALE RD & W CORTARO FARMS RD,32.358882,-111.047028,,,,,,0
16035,THMA(SW),SS/Thornydale/Massingale Rd,N THORNYDALE RD & W MASSINGALE RD,32.344529,-111.047014,,,,,,0
16036,THIN(NE),SS/Thornydale/Ina Rd,N THORNYDALE RD & W INA RD,32.337872,-111.046784,,,,,,0
16037,THMA(NE),SS/Thornydale/Massingale Rd,N THORNYDALE RD & W MASSINGALE RD,32.344949,-111.046797,,,,,,0
16038,THCF(NE),SS/Thornydale/Cortaro Farms Rd,N THORNYDALE RD & W CORTARO FARMS RD,32.359293,-111.046811,,,,,,0
16040,SUKO(NW),Sunrise Dr/Kolb,E SUNRISE DR & UNNAMED,32.308931,-110.845131,,,,,,0
16041,ESPA(NW),SS/Escalante/Pantano,E ESCALANTE RD & S CARSON AVE,32.177465,-110.824258,,,,,,0
16043,CCWI(SW),Country Club/Winsett,S COUNTRY CLUB RD & E 17TH ST,32.21401,-110.926734,,,,,,0
16045,36LC(NE),36th St/La Cholla,W 36TH ST & S LA CHOLLA BLVD,32.192386,-111.011072,,,,,,0
16047,CAVA(NE),Cardinal/Valencia,S CARDINAL AVE & W VALENCIA RD,32.134867,-111.028645,,,,,,0
16048,CAPA(NE),Cardinal/San Paulus,S CARDINAL AVE & W CMO ORO BLANCO,32.137869,-111.028611,,,,,,0
16049,CABY(NE),Cardinal/Bilby,S CARDINAL AVE & W QUAIL RD,32.14145,-111.028637,,,,,,0
16050,CABY(SW),Cardinal/Bilby,S CARDINAL AVE & W BILBY RD,32.140849,-111.028633,,,,,,0
16051,CAAV(NE),Cardinal/Alvaro,S CARDINAL AVE & W DOVE RD,32.145058,-111.028651,,,,,,0
16052,CAAV(SW),Cardinal/Alvaro,S CARDINAL AVE & W ALVARO RD,32.144367,-111.028712,,,,,,0
16053,VASE(SE),Valencia/Settler Av,W VALENCIA RD & S SETTLER AVE,32.132721,-111.053953,,,,,,0
16055,6SCA(NW),6th St/Campbell,E 6TH ST & N MARTIN AVE,32.227982,-110.944655,,,,,,0
16056,IRMI(NW),SS/Irvington/Mission,W IRVINGTON RD & S MISSION RD,32.159497,-111.007836,,,,,,0
16058,DMOE(NW),SS/C Don Miguel/Cmo de Oeste,W C DON MIGUEL & S AVE DON FERNANDO,32.170073,-111.063122,,,,,,0
16059,KIBO(SE),SS/Kinney Rd/Bopp Rd,S KINNEY RD & S AMBER ROCK AVE,32.17746,-111.079148,,,,,,0
16060,WWKI(NE),SS/Western Way Ci/Kinney Rd,W WESTERN WAY CIR & S KINNEY RD,32.186242,-111.091918,,,,,,0
16061,DOBO(NW),SS/Donald/Bopp Rd,W BOPP RD & S THORNTON AVE,32.177795,-111.099141,,,,,,0
16062,BOSJ(SE),SS/Bopp Rd/San Joaquin Rd,W BOPP RD & S SAN JOAQUIN RD,32.177135,-111.144905,,,,,,0
16063,VEAJ(NW),SS/Cmo Verde/Old Ajo Hwy,N CMO VERDE & W OLD AJO HWY,32.161349,-111.105544,,,,,,0
16064,BILI(NE),SS/Branding Iron Ci/Lightning L Pl,S BRANDING IRON CIR & W LIGHTNING L,32.14506,-111.109567,,,,,,0
16066,SUIR(NW),SS/Sunset Bl/Irvington,S SUNSET BLVD & W LOUISIANA ST,32.162894,-111.084244,,,,,,0
16067,IRSH(SE),SS/Irvington/Sheridan,W IRVINGTON RD & S BUTTS RD,32.162603,-111.07977,,,,,,0
16069,ANAV(NW),SS/Anway Rd/Avra Valley Rd,N ANWAY RD & W AVRA VALLEY RD,32.378983,-111.321185,,,,,,0
16070,COEC(SW),SS/Cocio Rd/El Cerrito Ln,N COCIO RD & W EL CERRITO LN,32.462236,-111.344849,,,,,,0
16071,ETTR(SW),SS/El Tiro Rd/Trico Rd,N TRICO RD & W SANDY ST,32.429312,-111.304633,,,,,,0
16072,FEAV(NW),SS/Feldman Rd/Avra Valley Rd,0 N FELDMAN RD & W AVRA VALLEY RD,32.38458,-111.311016,,,,,,0
16073,SWSA(SE),SS/Swanson St/Sanders Rd,W SWANSON ST & N SANDERS RD,32.437216,-111.233686,,,,,,0
16074,SOTM(NE),SS/Sandario Rd/Trico Marana Rd,N SANDARIO RD & W MARANA RD,32.461146,-111.216949,,,,,,0
16075,GRCS(SW),SS/Grier Rd/Coach Spring Dr,W GRIER RD & N COACH SPRING DR,32.453257,-111.192654,,,,,,0
16076,ADAM(NE),SS/Adonis Rd/Amole Ci,N ADONIS RD & N AMOLE CIR,32.458791,-111.209337,,,,,,0
16077,MMCC(NE),SS/Marana Main/Health Center,N MARANA MAIN ST,32.449122,-111.21217,,,,,,0
16078,WACA(NW),SS/Water St/Campbell St,W WATER ST & W CAMPBELL ST,32.415529,-111.154006,,,,,,0
16081,OGTH(NE),SS/Orange Grove/Thornydale,W ORANGE GROVE RD & N THORNYDALE RD,32.323526,-111.044519,,,,,,0
16082,MIVA(SW),SS/Mission/Valencia,S MISSION RD & W VALENCIA RD,32.133448,-111.016207,,,,,,0
16083,SXMI(SE),SS/San Xavier/Mission Rd,W SAN XAVIER RD & S MISSION RD,32.106665,-111.018632,,,,,,0
16084,SXLN(SW),SS/San Xavier/Little Nogales,W SAN XAVIER RD & N MARANA MAIN ST,32.106668,-111.009368,,,,,,0
16085,STHC(IN),SS/Stock Rd/Health Center,UNKNOWN & UNKNOWN,32.107657,-110.981027,,,,,,0
16086,LNCA(NW),SS/Little Nogales Dr/Campus Dr,S LITTLE NOGALES DR & UNKNOWN,32.090501,-111.005398,,,,,,0
16087,CAMI(NE),SS/Campus Dr/Mission Rd,W CAMPUS DR & S MISSION RD,32.091546,-111.021631,,,,,,0
16088,86RJ(SE),SS/State Hwy 86/Robles Jct,W AJO HWY & S SASABE HY STATE HIGHWAY 286,32.07698,-111.312157,,,,,,0
16089,8619(SW),SS/State Hwy 86/Sells IR 19,W STATE HIGHWAY 86 & S HIGHWAY 232,31.921305,-111.890475,,,,,,0
16090,8615(SE),SS/State Hwy 86/Quijotoa IR 15,W STATE HIGHWAY 86 & S HIGHWAY 232,32.158574,-112.110539,,,,,,0
16092,86SS(SW),SS/State Hwy 86/San Simon,UNKNOWN & W STATE HIGHWAY 86,32.183268,-112.360381,,,,,,0
16093,8634(NE),SS/State Hwy 86/Hickiwan IR 34,W STATE HIGHWAY 86 & S INDIAN ROUTE 1,32.206282,-112.571772,,,,,,0
16094,86GS(SW),SS/State Hwy 86/GunSight Valley,S STATE HIGHWAY 86,32.222165,-112.686728,,,,,,0
16096,86WH(NE),SS/State Hwy 86/Why,S STATE HIGHWAY 86 & S INDIAN ROUTE 1,32.264087,-112.736702,,,,,,0
16097,2A5S(SE),SS/2nd Av/5th St,N 2ND AVE & W WELCOME ST,32.382727,-112.872267,,,,,,0
16098,LAGR(SE),SS/Lon Adams/Grier Rd,N LON ADAMS RD & W GRIER RD,32.452646,-111.208398,,,,,,0
16100,6A15(NE),6th Av/15th St,S 6TH AVE & E 15TH ST,32.216205,-110.968493,,,,,,0
16101,2SOL(CR),SL/2nd St/Olive Rd,E 2ND ST & N PARK AVE,32.233783,-110.955589,,,,,,0
16102,6SHE(NW),6th St/Herbert Av,E 6TH ST & N HERBERT AVE,32.227826,-110.966671,,,,,,0
16105,RILA(SE),SS/River/La Cholla,W RIVER RD & N LA CHOLLA BLVD,32.305012,-111.011735,,,,,,0
16106,RILC(NW),SS/River/La Canada,W RIVER RD & N LA CANADA DR,32.29756,-110.995812,,,,,,0
16107,RILA(NW),SS/River/La Cholla,W RIVER RD & N LA CHOLLA BLVD,32.305403,-111.012392,,,,,,0
16108,RIRC(SE),SS/River/River Crossing Ln,W RIVER RD & N RIVER CROSSING LN,32.297359,-110.983343,,,,,,0
16109,MISX(NE),SS/Mission/San Xavier,S MISSION RD & W SAN XAVIER RD,32.106988,-111.018831,,,,,,0
16111,6SEU(NW),6th St/Euclid,E 6TH ST & N EUCLID AVE,32.227859,-110.960047,,,,,,0
16113,AN20(WB),Anklam/2002 W Anklam,W ANKLAM RD & N LA CHOLLA BLVD,32.225068,-111.009895,,,,,,0
16115,22KI(NW),22nd St/Kino Pkwy,E 22ND ST & S KINO PW,32.207041,-110.950721,,,,,,0
16117,SICH(NW),Silverlake/Cherrybell,E SILVERLAKE RD & S CAMPBELL AVE,32.20067,-110.944787,,,,,,0
16119,29CO(SE),29th St/Columbus,E 29TH ST & S COLUMBUS BLVD,32.199691,-110.900234,,,,,,0
16120,CAFL(NE),Campbell Av/Ft Lowell,N CAMPBELL AVE & E FORT LOWELL RD,32.265131,-110.9437,,,,,,0
16122,LCOV(SW),La Canada/Overton Rd,N LA CANADA DR & W HARDY RD,32.365843,-110.995915,,,,,,0
16123,LCHA(NE),La Canada/Hardy Rd,N LA CANADA DR & W HARDY RD,32.366895,-110.995601,,,,,,0
16124,GLOL(NW),Glenn/Orlando,E GLENN ST & N ARCADIA AVE,32.257954,-110.88862,,,,,,0
16126,PVFE(NW),Palo Verde/Felix,S PALO VERDE RD,32.154018,-110.917793,,,,,,0
16128,SPHA(NW),Speedway/Harrison,E SPEEDWAY BLVD & E SH PARK N RIDE WAY,32.235513,-110.790077,,,,,,0
16130,ESWP(SE),SS/Escalante/Winter Palm,N SUN TRAN BLVD & E TANGELO DR,32.177229,-110.831948,,,,,,0
16131,ESEV(SE),SS/Escalante/Evergreen,N SUN TRAN BLVD & E TANGELO DR,32.177212,-110.827202,,,,,,0
16132,GLDC(SE),Golf Links/Desert Cavern,E GOLF LINKS RD & S DESERT CAVERN PL,32.191728,-110.797715,,,,,,0
16133,VAAL(SE),Valencia/Alvernon,E VALENCIA RD & S ALVERNON WAY,32.13407,-110.908566,,,,,,0
16134,AVVA(NE),Alvernon/Valencia,S ALVERNON WAY & E VALENCIA RD,32.135056,-110.909308,,,,,,0
16135,BRHA(SE),Broadway/Harrison,E BROADWAY BLVD & N HARRISON RD,32.220687,-110.788898,,,,,,0
16138,VACS(IF),Valencia/Casino del Sol,W VALENCIA RD,32.132073,-111.085848,,,,,,0
16142,ESPR(NW),SS/Escalante/Prudence,N SUN TRAN BLVD & E TANGELO DR,32.177497,-110.832824,,,,,,0
16143,ESGR(NW),SS/Escalante/Grady,N SUN TRAN BLVD & E TANGELO DR,32.17749,-110.827955,,,,,,0
16144,HOVA(SW),SS/Houghton/Valencia,S HOUGHTON RD & E MEADOW WILLOW TRL,32.118345,-110.77291,,,,,,0
16145,RIHO(NW),SS/Rita Rd/Houghton,E RITA RD & E REES LOOP,32.102762,-110.773805,,,,,,0
16146,FWMO(NE),Flowing Wells/Mohave,N FLOWING WELLS RD & W PANAMA LN,32.268361,-110.994923,,,,,,0
16147,HOVA(NE),SS/Houghton/Valencia,S HOUGHTON RD & E VALENCIA RD,32.119338,-110.772593,,,,,,0
16150,PKSP(NW),Park/Speedway,N PARK AVE & E HELEN ST,32.236548,-110.956869,,,,,,0
16151,LCLA(SW),La Canada/Lambert,N LA CANADA DR & W LAMBERT LN,32.394772,-110.995945,,,,,,0
16152,PCCW(IN),Pima College West Campus,W PCC WEST DR & W ANKLAM RD,32.226282,-111.016613,,,,,,0
16156,ORRI(NE),Oracle/Rillito,N ORACLE RD & W RILLITO ST,32.248331,-110.977969,,,,,,0
16157,AMAS(NE),Auto Mall Dr/Auto Sprint Rd,W AUTO MALL DR & N AUTO SPRINT RD,32.290111,-110.983468,,,,,,0
16158,AMAS(SE),Auto Mall Dr/Auto Sprint Rd,W AUTO MALL DR & N AUTO SPRINT RD,32.289897,-110.983609,,,,,,0
16160,GAPV(NE),Gas Rd/Palo Verde,E GAS RD & S PALO VERDE RD,32.167061,-110.917262,,,,,,0
16161,223A(NW),22nd St/3rd Av,E 22ND ST & S 3RD AVE,32.206955,-110.964198,,,,,,0
16163,AVVA(SW),Alvernon/Valencia,S ALVERNON WAY,32.132949,-110.909693,,,,,,0
16167,POCC(IN),SS/Poinciana/Clements Center,E MANITOBA PL & S MANITOBA AVE,32.168305,-110.818889,,,,,,0
16169,GLMO(SE),Glenn/Mountain,E GLENN ST & N HIGHLAND AVE,32.257476,-110.952048,,,,,,0
16170,GRAN(NE),Greasewood/Anklam,N GREASEWOOD RD & W ANKLAM RD,32.22705,-111.020206,,,,,,0
16171,CAPR(SW),Campbell Av/Prince,N CAMPBELL AVE & E GREENLEE RD,32.271755,-110.943952,,,,,,0
16172,1ABL(SE),1st Av/Blacklidge,N 1ST AVE & E LAGUNA ST,32.261026,-110.960876,,,,,,0
16173,COCN(SE),SL/Av del Convento/Congress St,S AVE DEL CONVENTO & W CONGRESS ST,32.220037,-110.985287,,,,,,0
16174,CUFR(CR),SL/Cushing/Frontage Rd,W CUSHING ST & S FREEWAY,32.216805,-110.980366,,,,,,0
16175,BRGN(SE),SL/Broadway/Granada AvSE,W CONGRESS ST & N GRANADA AVE,32.221284,-110.975354,,,,,,0
16176,COGN(CR),SL/Congress/Granada AvCR,W CONGRESS ST & N GRANADA AVE,32.221404,-110.975768,,,,,,0
16177,BRST(SE),SL/Broadway/Stone,E BROADWAY BLVD & S SCOTT AVE,32.220952,-110.970796,,,,,,0
16178,COST(SE),SL/Congress/Stone,E CONGRESS ST & N SCOTT AVE,32.221958,-110.970934,,,,,,0
16179,GRCU(NW),SL/Granada/CushingNW,S GRANADA AVE,32.217694,-110.977696,,,,,,0
16180,CO4A(SE),SL/Congress/4th Av,N TOOLE AVE & E CONGRESS ST,32.221755,-110.965539,,,,,,0
16181,4A9S(CR),SL/4th Av/9th St,N 4TH AVE & E 8TH ST,32.224077,-110.965556,,,,,,0
16182,4A6S(CR),SL/4th Av/6th St,N 4TH AVE & E 6TH ST,32.226715,-110.965579,,,,,,0
16183,4A4S(CR),SL/4th Av/4th St,N 4TH AVE & E 5TH ST,32.229712,-110.965608,,,,,,0
16184,UN3A(CR),SL/University/3rd Av,E UNIVERSITY BLVD & N 3RD AVE,32.231658,-110.964423,,,,,,0
16185,UNTY(CR),SL/University/Tyndall,E UNIVERSITY BLVD & N TYNDALL AVE,32.231679,-110.958237,,,,,,0
16186,2SHI(CR),SL/2nd St/Highland Av,E 2ND ST & N MOUNTAIN AVE,32.233792,-110.951195,,,,,,0
16187,CUCO(NE),SL/Cushing/Av del Convento,W CUSHING ST & S AVE DEL CONVENTO,32.21769,-110.984631,,,,,,0
16188,AV5S(SW),Alvernon/5th St,N ALVERNON WAY & E C GUAYMAS,32.228423,-110.9097,,,,,,0
16189,6A14(SW),6th Av/14th St,S 6TH AVE & E 14TH ST,32.217121,-110.968665,,,,,,0
16190,ETTR(NW),SS/El Tiro Rd/Trico Rd,0 W EL TIRO RD & N DORAL AV,32.42945,-111.304917,,,,,,0
16191,FEAV(NE),SS/Feldman Rd/Avra Valley Rd,0 N FELDMAN RD & W AVRA VALLEY RD,32.384796,-111.311004,,,,,,0
16192,SOTM(SW),SS/Sandario Rd/Trico Marana Rd,N SANDARIO RD & W MARANA RD,32.460011,-111.217059,,,,,,0
16194,TAIP(NW),SS/Tangarine/Innovation Park Dr,E TANGERINE RD & E INNOVATION PARK DR,32.428392,-110.949745,,,,,,0
16195,IPVC(NE),SS/Innovation Pk Dr/Vistoso Commerce Pl,E INNOVATION PARK DR & E EL CONQUISTADOR WAY,32.438972,-110.943788,,,,,,0
16196,SWSA(NE),SS/Swanson St/Sanders Rd,W SWANSON ST & N SANDERS RD,32.437331,-111.233439,,,,,,0
16198,ESPO(NW),SS/Escalante/Poinciana,E INNOVATION PARK DR,32.17751,-110.837174,,,,,,0
16199,ESPO(SE),SS/Escalante/Poinciana,S MISSION RD,32.177245,-110.836044,,,,,,0
16200,ORFS(NW),Oracle/Flores,N ORACLE RD & W FLORES ST,32.247264,-110.97812,,,,,,0
16201,TECA(NE),Tetakusim Rd/Caballo Rd,W TETAKUSIM RD & S GILA AVE,32.115599,-111.05172,,,,,,0
16202,TECA(SW),Tetakusim Rd/Caballo Rd,W TETAKUSIM RD & S CABALLO RD,32.115427,-111.052957,,,,,,0
16204,6A12(SW),6th Av/12th St,S 6TH AVE & E 12TH ST,32.219715,-110.968688,,,,,,0
16206,SMSJ(SW),San Marcos/San Jacinto,W SAN MARCOS BLVD & S CAMINO DEL SIERRA,32.203036,-111.003602,,,,,,0
16207,TH6A(NE),Thoroughbred/6th Av,E THOROUGHBRED RD & S 6TH AVE,32.159732,-110.967706,,,,,,0
16208,PVBM(SW),Palo Verde/Broadmont,S PALO VERDE RD & E VETERANS ST,32.183936,-110.917877,,,,,,0
16209,MAML(SE),Magee/Mona Lisa,W MAGEE RD & N MONA LISA RD,32.347086,-111.019976,,,,,,0
16210,TOWC(WB),C Torim/Wellness Center,W CALLE TORIM & S OSAY BO OH,32.111736,-111.077876,,,,,,0
16211,GRCU(NE),SL/Granada/CushingNE,S GRANADA AVE,32.217773,-110.977285,,,,,,0
16212,BRCH(SW),Broadway/Church,W BROADWAY BLVD & S CHURCH AVE,32.221177,-110.973118,,,,,,0
16215,ORIN(NE),Oracle/Ina,N ORACLE RD & W INA RD,32.338534,-110.977186,,,,,,0
16216,OVPR(NE),Old Vail Park & Ride,E OLD VAIL RD & S CAMINO DE CAFE,32.100397,-110.799057,,,,,,0
16217,RORT(NE),Romero/Root Ln,N ROMERO RD & W ROOT LN,32.284079,-111.003343,,,,,,0
16218,RORT(SW),Romero/Root Ln,N ROMERO RD & W ROOT LN,32.28348,-111.003517,,,,,,0
16219,1APT(NE),1st Av/Pastime Rd,N 1ST AVE & E SMOOT DR,32.276229,-110.960972,,,,,,0
16220,RIOV(NE),SS/Rita Rd/Old Vail Rd,S RITA RD & E OLD VAIL RD,32.101155,-110.801347,,,,,,0
16221,RIOV(SW),SS/Rita Rd/Old Vail Rd,S RITA RD & E OLD VAIL RD,32.100674,-110.801673,,,,,,0
16222,SPTU(NE),Speedway/Tucson,E SPEEDWAY BLVD & S 6TH AVE,32.236153,-110.934221,,,,,,0
16223,TUSP(NW),Tucson Bl/Speedway,N TUCSON BLVD & E SPEEDWAY BLVD,32.236351,-110.935391,,,,,,0
16224,GRSP(SE),Greasewood/Speedway,N GREASEWOOD RD,32.235481,-111.021451,,,,,,0
16225,IBTO(NE),Ignacio Baumea/C Torim,S SHERIDAN AVE & W SIARI KUTA,32.112031,-111.080311,,,,,,0
16226,IBTE(NE),Ignacio Baumea/C Tetakusim,S SHERIDAN AVE & W LEEPE VOO O,32.115459,-111.08033,,,,,,0
16228,MAJE(NW),Mark Rd/Jeffrey Rd,S MARK RD & W CAMINO TIERRA,32.127651,-111.071932,,,,,,0
16232,WEBE(NE),Wetmore/Berni Av,W WETMORE RD & N FREY AVE,32.287003,-111.007878,,,,,,0
16233,MAVA(SW),Mark Rd/Valencia Rd,S MARK RD & W TILLERY ST,32.132707,-111.072057,,,,,,0
16234,BRAR(NE),Broadway/Arcadia,E BROADWAY BLVD & N ARCADIA AVE,32.221684,-110.887113,,,,,,0
16235,FLFX(NW),Fort Lowell/Fox Av,E FORT LOWELL RD & N FOX AVE,32.265007,-110.932189,,,,,,0
16236,TOCO(NW),C Torim/Cmo Cocoim,W CALLE TORIM & S CAMINO COCOIM,32.111724,-111.072499,,,,,,0
16238,SMSJ(NW),San Marcos/San Jacinto,W SAN MARCOS BLVD & S CAMINO DEL SIERRA,32.203198,-111.003569,,,,,,0
16239,HOSG(SW),SS/Houghton/Seven Generations,S HOUGHTON RD & E SEVEN GENERATIONS WAY,32.154625,-110.772891,,,,,,0
16240,HOBI(SW),SS/Houghton/Bilby,S HOUGHTON RD & E SEVEN GENERATIONS WAY,32.139815,-110.772892,,,,,,0
16243,HOBI(NE),SS/Houghton/Bilby,S HOUGHTON RD & E BILBY RD,32.141478,-110.772424,,,,,,0
16244,HOSG(NE),SS/Houghton/Seven Generations,S HOUGHTON RD & S CIVANO BLVD,32.155972,-110.772456,,,,,,0
16249,CCBE(NE),Country Club/Behan St,S COUNTRY CLUB RD & E BEHAN ST,32.152565,-110.926196,,,,,,0
16250,CCBE(SW),Country Club/Behan St,S COUNTRY CLUB RD & E BEHAN ST,32.152288,-110.92638,,,,,,0
16251,CCBA(NE),Country Club/Bantam Rd,S COUNTRY CLUB RD & E BANTAM RD,32.156253,-110.926226,,,,,,0
16252,CCBA(SW),Country Club/Bantam Rd,S COUNTRY CLUB RD & E BANTAM RD,32.155976,-110.92641,,,,,,0
16253,CCDR(NE),Country Club/Drexel,S COUNTRY CLUB RD & E HOLLADAY ST,32.149083,-110.926195,,,,,,0
16254,BHMA(SE),Benson Hy/Masterson,E BENSON HWY & E HOLLADAY ST,32.154219,-110.921296,,,,,,0
16255,BHMA(NW),Benson Hy/Masterson,E BENSON HWY & E HOLLADAY ST,32.154652,-110.921642,,,,,,0
16259,DRCC(NW),Drexel/Country Club,E DREXEL RD,32.14888,-110.926666,,,,,,0
16260,SW26(NW),Swan/26th St,S SWAN RD & E ANDREW ST,32.202934,-110.892444,,,,,,0
16262,BR6V(SE),Broadway/6th Av,E BROADWAY BLVD & S 6TH AVE,32.221155,-110.968295,,,,,,0
16263,COCH(SW),SL/Congress/Church,W CONGRESS ST & N 6TH AVE,32.221685,-110.972673,,,,,,0
16264,BRLD(NW),Broadway/Leland,E BROADWAY BLVD & N LELAND RD,32.220919,-110.7768,,,,,,0
16265,BRSB(NW),Broadway/Shadow Brook,E BROADWAY BLVD & S SHADOW CREEK PL,32.220916,-110.781044,,,,,,0
16266,BRVO(NW),Broadway/Vozack,E BROADWAY BLVD & S VOZACK LN,32.220907,-110.785597,,,,,,0
16267,BRVO(SE),Broadway/Vozack,E BROADWAY BLVD & N STONER AVE,32.22075,-110.785194,,,,,,0
16268,BRBO(SE),Broadway/Bonanza,E BROADWAY BLVD & S LONDON STATION RD,32.220822,-110.779701,,,,,,0
16269,BRSH(SW),Broadway/Sonoran Heights,E BROADWAY BLVD & N HOUGHTON RD,32.220769,-110.776151,,,,,,0
16270,BRHO(NW),Broadway/Houghton(NW),E BROADWAY BLVD & S HOUGHTON RD,32.220983,-110.774208,,,,,,0
16271,6AOR(SW),6th Av/Oregon St,S 6TH AVE & E DREXEL RD,32.153006,-110.968189,,,,,,0
16272,5SWO(NE),5th St/Woodland,E 5TH ST & N WOODLAND AVE,32.22901,-110.877519,,,,,,0
16273,6AOR(SE),6th Av/Oregon St,S 6TH AVE & E DREXEL RD,32.153058,-110.967997,,,,,,0
16274,FL1A(NW),Fort Lowell/1st Av,E FORT LOWELL RD & E DREXEL RD,32.264943,-110.96163,,,,,,0
16275,FLFO(NE),Fort Lowell/Fontana,E FORT LOWELL RD & N FONTANA AVE,32.264852,-110.967431,,,,,,0
16276,FLFO(SW),Fort Lowell/Geronimo,E FORT LOWELL RD & N FONTANA AVE,32.264685,-110.966045,,,,,,0
16277,FLST(SE),Fort Lowell/Stone,E FORT LOWELL RD & N ESTRELLA AVE,32.26466,-110.971391,,,,,,0
16278,LRCO(SW),Los Reales/Cmo Cocoim,W LOS REALES RD & S CAMINO COCOIM,32.118777,-111.071287,,,,,,0
16279,LRBE(SE),Los Reales/Cmo Benem,W LOS REALES RD & S CAMINO BENEM,32.118776,-111.068582,,,,,,0
16280,RISC(NE),Rita Rd/Science Park Dr,S RITA RD,32.088227,-110.804068,,,,,,0
16281,PCC2(IN),Pima College 29th St Campus,E 29TH ST & S ERIN AVE,32.199132,-110.898845,,,,,,0
16283,GLMO(NE),Glenn/Mountain,E GLENN ST & N HIGHLAND AVE,32.257649,-110.95228,,,,,,0
16284,TPOM(IN),SS/Twin Peaks/Outlet Mall,W TWIN PEAKS RD & W I10,32.375932,-111.10105,,,,,,0
16292,COAV(NW),Corona/Alvernon,E CORONA RD & S PALO VERDE RD,32.123458,-110.911605,,,,,,0
16293,6A44(SE),6th Av/44th St,S 6TH AVE & W 44TH ST,32.184924,-110.968226,,,,,,0
16295,PVMI(SW),Palo Verde/Milton,S PALO VERDE RD & E ALVORD RD,32.146741,-110.917882,,,,,,0
16297,IRJT(NW),SS/Irvington/Joshua Tree,E IRVINGTON RD & S JOSHUA TREE DR,32.162977,-110.805993,,,,,,0
16298,IRJT(SE),SS/Irvington/Joshua Tree,E IRVINGTON RD & S JOSHUA TREE DR,32.162802,-110.805505,,,,,,0
16299,IRHA(NW),SS/Irvington/Harrison,E IRVINGTON RD & S WINGATE BLVD,32.162935,-110.790554,,,,,,0
16300,RIAZ(NW),SS/Rita Rd/Azuma Wy,E RITA RD & S WINGATE BLVD,32.112308,-110.789119,,,,,,0
16301,RIAS(NW),SS/Rita Rd/Ashford Dr,E RITA RD & E ASHFORD DR,32.109495,-110.786815,,,,,,0
16302,RIAS(SE),SS/Rita Rd/Ashford Dr,E RITA RD & E ASHFORD DR,32.108756,-110.786559,,,,,,0
16303,RIRA(NE),SS/Rita Rd/Rankin Lp(NE),E RITA RD & E ESMOND LOOP,32.106771,-110.784564,,,,,,0
16304,RIES(SE),SS/Rita Rd/Esmond Lp,E RITA RD & E ESMOND LOOP,32.105843,-110.784193,,,,,,0
16305,RIRA(NW),SS/Rita Rd/Rankin Lp(NW),E RITA RD & E ESMOND LOOP,32.102794,-110.778006,,,,,,0
16306,RITI(SE),SS/Rita Rd/Via Del Timbre,E RITA RD & E ESMOND LOOP,32.102525,-110.777158,,,,,,0
16307,VAHE(SE),Valencia/Headley,W VALENCIA RD & S HEADLEY RD,32.133692,-111.00646,,,,,,0
16310,LVTH(NW),SS/Linda Vista/Thornydale,W LINDA VISTA BLVD & N THORNYDALE RD,32.380841,-111.047764,,,,,,0
16311,KI12(NW),Kino Pw/12th St,S KINO PKWY & E 12TH ST,32.220643,-110.944173,,,,,,0
16312,MLTM(NW),MLKing/Tucson Marketplace,E 36TH ST & S FREMONT AVE,32.188469,-110.948992,,,,,,0
16314,SICR(SE),Silverbell/Crossroads Park,W TETAKUSIM RD,32.346382,-111.096247,,,,,,0
16317,KI15(SW),Kino Pw/15th St,S KINO PKWY,32.214772,-110.946664,,,,,,0
16318,BHDR(SE),Benson Hy/Drexel,0 E BENSON HY,32.148595,-110.912403,,,,,,0
16320,RAWV(IF),Raytheon/World View,E HUGHES ACCESS RD,32.086732,-110.946742,,,,,,0
16323,INSC(NW),Ina/Starcommerce Way,W INA RD & N STARCOMMERCE WAY,32.337676,-111.073216,,,,,,0
16324,LVOE(NW),SS/Linda Vista/Cmo de Oeste,W LINDA VISTA BLVD & N CAMINO DE OESTE,32.381093,-111.063728,,,,,,0
16325,LVOE(SE),SS/Linda Vista/Cmo de Oeste,W LINDA VISTA BLVD & N CAMINO DE OESTE,32.380824,-111.062772,,,,,,0
16326,LCDM(SW),SS/La Canada/Duval Mine Rd,S LA CANADA DR & N CAMINO DE OESTE,31.899654,-110.995007,,,,,,0
16327,DMLC(SE),SS/Duval Mine Rd/La Canada Dr,W DUVAL MINE RD & S LA CANADA DR,31.902477,-110.992763,,,,,,0
16328,TECO(SE),C Tetakusim/Cmo Cocoim,W CALLE TETAKUSIM & S CAMINO COCOIM,32.115261,-111.070642,,,,,,0
16329,KOTV(SW),Kolb/Tanque Verde,,32.247493,-110.849593,,,,,,0
16330,AJ2A(SW),Ajo/2nd Av,0 E AJO WY & S 3RD AV,32.177765,-110.963055,,,,,,0
16331,VANO(SW),Vamori St/Nogales Hy,0 E VAMORI ST,32.110743,-110.96115,,,,,,0
16332,GR64(EB),Grant/6460 E Grant,,32.250505,-110.854163,,,,,,0
16333,KOLP(SW),Kolb/C La Paz,,32.245179,-110.846411,,,,,,0
16337,AJHI(NW),Ajo/Holiday Isle Blvd,,32.177973,-110.995344,,,,,,0
16338,JTED,JTED/Tucson Marketplace,,32.187075,-110.959419,,,,,,0
16339,36PV(NW),36th St/Pinal Vista,0 E 36TH ST & E PINAL VISTA,32.191128,-110.929045,,,,,,0
16340,36FO(NW),36th St/Forgeus Av,0 E 36TH ST & S FORGEUS SV,32.192548,-110.933258,,,,,,0
16341,36FO(SE),36th St/Forgeus Av,0 E 36TH ST & S FORGEUS AV,32.192361,-110.932238,,,,,,0
16342,36PV(SW),36th St/Pinal Vista,0 E 36TH ST & E PINAL VISTA,32.19097,-110.929076,,,,,,0
16343,CA36(NE),Campbell Av/36th St,0 S CAMPBELL AV & S FORGEUS AV,32.193023,-110.943423,,,,,,0
16344,CA31(NE),Campbell Av/31st St,0 S MARTIN AV & E 31ST ST,32.197766,-110.943356,,,,,,0
16345,CA31(SW),Campbell Av/31st St,0 S MARTIN AV & E 31ST ST,32.19725,-110.943441,,,,,,0
16346,ERCV(SE),El Rio Dr/Club View,0 N EL RIO DR & E 31ST ST,32.241084,-111.002269,,,,,,0
16348,PKTM(SW),Park/Tucson Marketplace,0 S PARK AV,32.186971,-110.956424,,,,,,0
